id,name,region,neighbourhood,latitude,longitude,price,review count
49091,COZICOMFORT LONG TERM STAY ROOM 2,North Region,Woodlands,1.44255,103.7958,83,1
50646,Pleasant Room along Bukit Timah,Central Region,Bukit Timah,1.33235,103.78521,81,18
56334,COZICOMFORT,North Region,Woodlands,1.44246,103.79667,69,20
71609,Ensuite Room (Room 1 & 2) near EXPO,East Region,Tampines,1.34541,103.95712,206,14
71896,B&B  Room 1 near Airport & EXPO,East Region,Tampines,1.34567,103.95963,94,22
71903,Room 2-near Airport & EXPO,East Region,Tampines,1.34702,103.96103,104,39
71907,3rd level Jumbo room 5 near EXPO,East Region,Tampines,1.34348,103.96337,208,25
241503,"Long stay at The Breezy East ""Leopard""",East Region,Bedok,1.32304,103.91363,50,174
241508,"Long stay at The Breezy East ""Plumeria""",East Region,Bedok,1.32458,103.91163,54,198
241510,"Long stay at The Breezy East ""Red Palm""",East Region,Bedok,1.32461,103.91191,42,236
275343,Conveniently located City Room!( (Phone number hidden by Airbnb) ),Central Region,Bukit Merah,1.28875,103.80814,44,18
275344,15 mins to Outram MRT Single Room (B),Central Region,Bukit Merah,1.28837,103.81099,40,10
289234,Booking for 3 bedrooms,East Region,Tampines,1.34561,103.95984,417,12
294281,5 mins walk from Newton subway,Central Region,Newton,1.31125,103.83816,65,125
324945,20 Mins to Sentosa @ Hilltop ! (8),Central Region,Bukit Merah,1.28976,103.80896,44,13
330089,"Accomo@ REDHILL-INSEAD, NTU,NUS -Mu(D)",Central Region,Bukit Merah,1.28677,103.81244,40,10
330095,10 mins to Redhill MRT @ Mini Orange Room(5),Central Region,Bukit Merah,1.28537,103.81087,31,3
344803,Budget short stay room near  EXPO,East Region,Tampines,1.34943,103.95951,49,45
355955,Double room in an Authentic Peranakan Shophouse,Central Region,Geylang,1.3142,103.90232,81,0
369141,5mins from Newton Train Station,Central Region,Newton,1.3115,103.83759,60,84
369145,5 mins walk from Newton MRT,Central Region,Newton,1.31159,103.83805,60,157
395191,Heritage Apartment Room near Orchard,Central Region,River Valley,1.29345,103.83562,56,27
423875,Master Bedroom 4-Airport & EXPO,East Region,Tampines,1.34838,103.9592,104,16
481789,Master Bedroom in Newly Built Flat,East Region,Tampines,1.34816,103.93238,37,0
553229,Comfortable Condo Room - Boon Lay MRT,West Region,Jurong West,1.34135,103.71139,53,23
604966,Boutique 1 bedroom entiere appart,Central Region,Bukit Timah,1.33171,103.79383,276,11
642660,BEST CITY LIVING WITH GA RESIDENCE,Central Region,Rochor,1.30109,103.85234,167,0
696136,Quiet ensuite room in Holland Village,Central Region,Bukit Timah,1.31016,103.79853,100,28
719944,HDB housing in prime area near town,Central Region,Queenstown,1.30901,103.79639,208,0
733863,Homestay at Serangoon,North-East Region,Serangoon,1.36743,103.87288,26,0
746929,2 Bdrm Spacious Condo_SeaView _10 Mins to Beach,East Region,Bedok,1.30792,103.92287,176,99
756267,East Coast Boutique,Central Region,Marine Parade,1.30377,103.89956,165,68
756300,Cosy Furnished bedroom,North-East Region,Serangoon,1.35001,103.87161,44,36
756347,Bedroom for one. Good sea view,East Region,Pasir Ris,1.37527,103.94562,206,0
764599,10mins MRT to Orchard Road,Central Region,Toa Payoh,1.34143,103.84945,51,48
765579,Chinatown@doorstep: *Queenbed Room 891,Central Region,Outram,1.28315,103.84213,44,2
768313,Common Room for rent immediate,North-East Region,Punggol,1.39963,103.9064,167,0
782227,"Cosy, bright, tasefully furnished",Central Region,Queenstown,1.28342,103.78585,128,0
804470,Spacious Luxury Condo in Orchard,Central Region,Tanglin,1.30292,103.82253,2604,1
815685,Awesome Yellow Room in the City! Near Orchard Rd!,Central Region,Bukit Merah,1.28909,103.80749,40,13
819034,Boutique 2 Bedroom Apartment,Central Region,Marine Parade,1.30529,103.9042,300,37
819044,East Coast Hideaway,Central Region,Marine Parade,1.30392,103.89988,150,68
822413,Ming Vase Theme - 2 BR Apartment,Central Region,Tanglin,1.29839,103.82808,200,9
823571,Apartment away from town,East Region,Bedok,1.31313,103.91479,278,0
833289,Warm hospitality Italian style,Central Region,Bukit Merah,1.27681,103.82381,150,2
872345,Designer Designed Double Room,North-East Region,Hougang,1.37037,103.90052,42,20
880846,1 bedrm Aptm by Farrer Park Mrt,Central Region,Kallang,1.31357,103.85731,100,0
881253,Chinatown Doorstep: *Ensuite 1+1+ WOW city view!,Central Region,Outram,1.28291,103.84284,65,3
881683,Tastefully Designed Single Room,North-East Region,Hougang,1.36775,103.89855,40,10
888196,Exclusive 4 BR Penthouse with Views,Central Region,Novena,1.31314,103.84081,243,14
902669,Aljunied *RoomC > MRT 3min > CBD 15 mins,Central Region,Geylang,1.31525,103.88176,35,6
918880,White English Home - strictly for female guest,North-East Region,Serangoon,1.36885,103.8731,65,25
922138,Porcelain Bowl Theme - 2 BR Apt,Central Region,Downtown Core,1.27529,103.84494,219,6
922509,Chinatown your doorstep: Ensuite M203,Central Region,Outram,1.28491,103.84209,60,6
948105,Ensuite Master Bed Rm US$60 p/nite,North-East Region,Punggol,1.39877,103.90248,76,2
963342,Individual room available for rent near to market,North-East Region,Hougang,1.37369,103.87847,35,6
982909,Cozy Room @Central Area,Central Region,Novena,1.33334,103.8327,69,222
1024986,Super Host Apartment,Central Region,River Valley,1.29349,103.83837,140,145
1060046,S$950/mth spacious room for short/long term lease,West Region,Bukit Panjang,1.38123,103.76874,49,15
1078804,Cozy Studio Room,North-East Region,Hougang,1.36764,103.90228,31,60
1131162,Cozy Room at Bedok Reservoir,East Region,Bedok,1.33729,103.9298,72,1
1142414,Heritage apartment: Master Rm4* +bathroom (3mth+),Central Region,Kallang,1.31135,103.85946,49,2
1178486,Cosy Private Room -  Ladies Only,Central Region,Kallang,1.29638,103.87282,81,14
1183421,Luxury Loft in the Center of SG,Central Region,Singapore River,1.28708,103.84444,231,28
1199033,Lush Apartment on the East Coast,Central Region,Marine Parade,1.29891,103.88681,190,29
1210268,3BR (For 5)Apt Orchard/Stevens/UNESCO *MRT* Sui,Central Region,Tanglin,1.31693,103.82636,319,42
1229614,1 bdrm Aptmt Orchard/Stevens/UNESCO Area #1,Central Region,Tanglin,1.31503,103.82614,149,29
1233249,2BR (For 3) Apt Orchard/Stevens/UNESCO *MRT* A,Central Region,Tanglin,1.31507,103.82704,240,29
1242205,Heritage Shophouse - Alluring Lodge,Central Region,Marine Parade,1.31,103.90321,137,10
1244654,kAwesome view! Ensuite M208,Central Region,Outram,1.28485,103.84347,58,4
1249555,Heritage apartment: Master room* +bathroom (3mth+),Central Region,Kallang,1.31213,103.8561,56,1
1261443,kAweSome *view9! Ensuite 1+1 @ CBD/Chinatown (Cal),Central Region,Outram,1.28407,103.8436,65,3
1277842,SHORT TERM ACCOMMODATION,Central Region,Queenstown,1.29201,103.76936,60,7
1277919,SHORT TERM ACCOMODATION AT CLEMENTI,Central Region,Queenstown,1.29213,103.76913,50,11
1302185,"1-5pax Paya Lebar MRT, Sentosa, MBS, Orchard, City",Central Region,Geylang,1.31511,103.88947,129,83
1315867,For The Solo Traveler and Dog Lover,East Region,Bedok,1.31259,103.91067,69,72
1363204,Chinatown at your door: Master Rm* attach bathroom,Central Region,Outram,1.28432,103.84334,60,3
1434208,Appt 3R  great vew on Marin baysand,Central Region,River Valley,1.29211,103.836,400,6
1466685,Single room with pool/gym near Town,Central Region,Toa Payoh,1.3305,103.8424,44,29
1485189,Lovely Bedroom w own Toilet - Singapore,Central Region,Tanglin,1.30768,103.82017,104,51
1508829,Lavender QueenBed rmFr: 5m walk MRT,Central Region,Kallang,1.30774,103.86332,40,8
1521198,Singapore Downtown room with Ensuite bathroom,Central Region,Kallang,1.30844,103.85875,76,22
1562453,Deluxe Quad-sharing room,Central Region,Novena,1.32359,103.8498,31,0
1581224,Life Impact Coaching,Central Region,Kallang,1.31118,103.87367,131,0
1599599,2br Orchard Loft beside MRT,Central Region,Orchard,1.30341,103.83365,300,9
1611318,"Central Condo, reasonable price",Central Region,Bukit Merah,1.28419,103.82765,60,0
1615074,AweSome view! Ensuite 1+1 @Chinatown,Central Region,Outram,1.28328,103.84329,67,3
1622505,Terrace Suite,Central Region,Marine Parade,1.30415,103.90192,165,27
1643945,Private Bedroom from Semi-D,North-East Region,Ang Mo Kio,1.39088,103.85303,217,0
1646909,"Cozy room, convenient location",West Region,Bukit Batok,1.34126,103.75992,82,0
1647014,Quiet Tropical Garden Bedroom Suite,Central Region,Novena,1.33917,103.82306,89,78
1654840,3-person Bunk/Loft Bed Pte Room,Central Region,Rochor,1.30292,103.858,90,2
1656833,Female room in luxury penthouse,Central Region,Novena,1.32389,103.84872,131,1
1678744,Ladies-Only Shared Room @ Chinatown,Central Region,Outram,1.28425,103.8432,50,134
1678754,Private Room for 6pax @ Chinatown,Central Region,Outram,1.28446,103.8446,300,2
1678755,Mixed Shared Room @ Chinatown,Central Region,Outram,1.28467,103.84327,50,83
1710048,Fireworks view8! highrise Ensuite,Central Region,Outram,1.28556,103.84198,58,0
1715479,"3 BR @ ROB WALK-Orchard, Clark/Boat Quay close by!",Central Region,Museum,1.29857,103.84748,194,11
1719704,kEnsuiteM1 Brickwall2 @ Chinatown/CBD,Central Region,Outram,1.28459,103.84217,56,3
1743439,Private room & sofa w/ a TV in a central location!,Central Region,Outram,1.28328,103.84532,800,3
1756811,room in HDB sembawang close  ,North Region,Sembawang,1.44843,103.81538,550,1
1766900,Heart of Orchard rd Master Room,Central Region,Newton,1.30626,103.83994,85,11
1795873,Common Room with Private Bathroom,Central Region,Queenstown,1.30669,103.80043,40,0
1804722,Shared Room for Two at Boon Keng MRT Station,Central Region,Kallang,1.31909,103.85741,33,1
1805143,2 Bdr condo+pool+Mins walk to MRT,Central Region,Geylang,1.31435,103.88617,169,19
1813277,Student Guardianship & Homestay,West Region,Choa Chu Kang,1.38717,103.74256,60,0
1816463,Family room  (Room 6) at 3rd level,East Region,Tampines,1.34566,103.95994,90,9
1833950,Studio Apt Orchard/Stevens Area #2,Central Region,Tanglin,1.31742,103.82572,160,24
1838622,Beautifully renovated cosy room ,East Region,Bedok,1.31993,103.92342,90,0
1848152,Superb Outram central location - Master Bedroom,Central Region,Outram,1.2819,103.83849,50,6
1857229,3rd Level -2 rooms with Family Hall,East Region,Tampines,1.34574,103.95945,260,4
1887198,Clarke Quay Riverfront,Central Region,Singapore River,1.28968,103.84632,219,11
1893524,Private Room Next to AMK MRT,North-East Region,Ang Mo Kio,1.36724,103.84722,44,0
1900478,"aljunied solo Mini *Ensuite, 3 min walk MRT",Central Region,Geylang,1.31539,103.88257,40,1
1902729,"Modest, clean & comfy, easy to city",East Region,Bedok,1.31944,103.91529,68,3
1902793,"Large,  clean & comfy, easy to city",East Region,Bedok,1.32249,103.92316,118,2
1989617,Private Room in Fort Canning Area - Very Central,Central Region,River Valley,1.29726,103.84263,221,0
2001199,3BD Apartment with great facilities,Central Region,Toa Payoh,1.3377,103.88248,140,2
2009008,"Modest, clean & comfy, easy to city",East Region,Bedok,1.32111,103.92206,68,5
2024941,Cosy Double room in a Terrace House,East Region,Bedok,1.31963,103.924,94,0
2030544,"Condo Apartment (Pool,Roof,Tennis)",Central Region,Downtown Core,1.27365,103.84354,240,8
2030663,Singapore Room n Central Balestier!,Central Region,Novena,1.32359,103.85063,360,2
2033483,"★2+1condo next to MRT, mall & more★",West Region,Choa Chu Kang,1.38768,103.74476,118,0
2036711,Nice Villa RoomA 6mins Walk to MRT! !1mins to bus,Central Region,Toa Payoh,1.33903,103.88474,60,49
2085130,Singapore Private Mini Room!,Central Region,Novena,1.32347,103.85213,381,11
2090082,New Cozy Studio Apt @Orchard Area,Central Region,River Valley,1.29815,103.83895,140,100
2090132,Perfect Location Comfy Studio Apt,Central Region,River Valley,1.29549,103.83931,140,107
2095865,"Clean room, minutes to MRT & shops",West Region,Choa Chu Kang,1.38686,103.74468,64,29
2113778,Spacious Condo Master Room for rent,West Region,Bukit Panjang,1.34891,103.77137,69,7
2121839,City views central location 2BR CBD Chinatown,Central Region,Outram,1.28153,103.84808,250,163
2128831,Family 3 / 4 Beds Room (Group),Central Region,Kallang,1.31609,103.85813,99,8
2128875,Cosy Walk Up Apartment - very quiet and central,Central Region,Novena,1.31642,103.8398,89,7
2129215,Luxuriously Spacious Studio Apt.,East Region,Bedok,1.32122,103.91492,139,323
2142826,Singapore Room for Rent!,Central Region,Novena,1.32423,103.85293,281,21
2146015,Pvt Bedroom Suite @ Orchard Central Area.,Central Region,River Valley,1.29488,103.83973,87,98
2156329,"Cozy Private Room w private Bath&AC, mins to MRT",West Region,Choa Chu Kang,1.38602,103.74316,32,60
2156372,"Cozy, Many Guests Loved It Here",North-East Region,Hougang,1.36867,103.89905,50,7
2163108,"Attached bathroom @ Chinatown Apartment, City, MRT",Central Region,Outram,1.28388,103.84398,50,2
2320536,Single Room at Woodlands,North Region,Woodlands,1.44076,103.77626,31,5
2351979,Tribeca Robertson Quay (new 1br),Central Region,Singapore River,1.29041,103.83482,150,0
2357514,Heritage Shophouse Right in Epicentre of Sights,Central Region,Outram,1.28448,103.8436,69,307
2362558,"City,(7~10pax)Entire Private Loft,Fast WIFI,Clean",Central Region,Kallang,1.31196,103.85962,342,23
2375063,B.New 2 Bedroom Apt @ Orchard Area,Central Region,River Valley,1.29462,103.83855,200,142
2377875,City fringe living at condominium!,Central Region,Kallang,1.29907,103.87601,58,52
2387096,"City,(5~6 pax)Entire Private Loft,Fast WIFI,Clean",Central Region,Kallang,1.31193,103.85952,253,2
2387588,"City,(7~9pax)Entire Private Loft, Fast WIFI,Clean",Central Region,Kallang,1.31254,103.85963,303,48
2387687,"Promotion: City,S$54 /person/night,Fast wifi,Clean",Central Region,Kallang,1.31201,103.85971,54,29
2387715,"City,(3~4pax)Moyen Alcôve,Fast WIFI,Clean,Cosy",Central Region,Kallang,1.31215,103.85982,135,50
2387730,"Promotion: City,$54/pax, Fast WIFI,  Boutique Inn",Central Region,Kallang,1.31125,103.86083,54,6
2387766,"City,(10~14pax)Entire Private Loft,Fast WIFI,Clean",Central Region,Kallang,1.31054,103.86098,462,11
2427007,Beautiful new condo at Bt Timah,Central Region,Bukit Timah,1.33746,103.78052,119,3
2450232,Nice attic room,North Region,Central Water Catchment,1.35176,103.81967,500,0
2451003,Modern Chic 1BD shopfront,Central Region,Museum,1.2942,103.84283,108,31
2484135,Nice Villa RoomB 6mins walk to MRT!,Central Region,Toa Payoh,1.33792,103.88593,60,57
2488036,Amazing Location- Shophouse in Epicentre of Sights,Central Region,Outram,1.283,103.84399,89,121
2488042,Massive Room in Chinatown Shophouse,Central Region,Outram,1.28409,103.84514,67,19
2532466,2BR perfect for work and leisure,Central Region,Outram,1.28674,103.84073,250,24
2541029,LONG TERM LEASE Condo Common Room 1 No Owner,Central Region,Kallang,1.32692,103.86459,40,0
2547370,Happy Snail Hostel - 4 person Room,Central Region,Bukit Merah,1.27819,103.83072,119,1
2547778,1950s cozy window singlebed roomQi @ lavender,Central Region,Kallang,1.31138,103.86104,36,1
2566687,Room in the NW part of SG,West Region,Choa Chu Kang,1.39245,103.7527,1200,0
2612906,New Studio Apt @ Orchard/ Central Area...,Central Region,River Valley,1.29773,103.83919,128,70
2673027,Private Room Novena (2 Stops to Orchard),Central Region,Novena,1.31626,103.84444,81,43
2691621,"Sofa couch, near Orchard/Holland",Central Region,Queenstown,1.30699,103.80159,69,0
2696834,Master Rm A2 nr MRTCBP/CGH/SUTD/Boeing & SIA,East Region,Bedok,1.32823,103.94835,56,21
2752673,❀❀2BR Fully Furnished @ Little India (un),Central Region,Kallang,1.31254,103.85068,200,24
2764928,Centrally located Shop House,Central Region,River Valley,1.29519,103.84185,150,7
2838555,1 Bedroom with Balcony suite (Walk to Aljunied MRT,Central Region,Geylang,1.31566,103.8859,90,52
2840554,Spacious 1 bedroom unit (Walk to Aljunied MRT),Central Region,Geylang,1.31531,103.88561,93,44
2851984,Room Rental just opposite MRT,West Region,Choa Chu Kang,1.39834,103.74972,31,0
2858696,New 2 Bedroom Apt @ Orchard Area,Central Region,River Valley,1.29645,103.83972,200,97
2868366,Studio Apt @ Orchard/Central,Central Region,River Valley,1.29648,103.83877,106,217
2890215,Bright Breezy Serviced Room,North-East Region,Sengkang,1.38769,103.89361,25,0
2922184,10 min walk to HawParVilla MRT- INSEAD booking!(8),Central Region,Queenstown,1.28132,103.7854,49,8
2959811,Central and stylish pied-a-terre - 3 months min.,Central Region,Orchard,1.30021,103.84288,69,0
2960181,"T - Bright, Quiet Luxe Studio @ Town",Central Region,Bukit Merah,1.28376,103.83082,139,17
3000736,16-Bed Mixed Dormitory,Central Region,Kallang,1.31047,103.86096,35,19
3034137,Cozy 1 BD linked to MRT (Heartland),North-East Region,Hougang,1.36103,103.88356,83,9
3075620,Everything You Need in Singapore,Central Region,Museum,1.2986,103.84659,110,6
3078453,5 mins walk to MRT. Very near city.,Central Region,Toa Payoh,1.33967,103.86901,228,6
3085308,2 bedrooms retro style apartment,Central Region,Bukit Merah,1.27811,103.83379,254,4
3100323,Exclusive Riverside Condo Living,Central Region,Kallang,1.29575,103.86549,275,0
3116909,New Studio Apt @Orchard/Central,Central Region,River Valley,1.29792,103.83781,125,93
3140972,Ground floor Cosy and Spacious 1 bedroom apartment,Central Region,Geylang,1.31601,103.88579,92,63
3141018,"Penthouse + pool, jacuzzi & terrace",Central Region,Kallang,1.31239,103.85201,300,3
3141692,Family 5/6 Beds Room,Central Region,Kallang,1.31619,103.85983,137,31
3142075,2Beds in 6 Beds Female Shared Room,Central Region,Kallang,1.31472,103.86022,44,5
3142155,Double Room / Triple Sharing,Central Region,Kallang,1.31437,103.86017,60,2
3144267,Furnished 1 Bedroom Apartment,Central Region,Geylang,1.31393,103.88749,85,62
3179080,12-Bed Ladies Dormitory,Central Region,Kallang,1.31086,103.85883,37,18
3179271,Room for friends (Max 4 guests),Central Region,Kallang,1.30997,103.86052,150,0
3207194,Prime CBD Club Street heritage Loft S2,Central Region,Outram,1.28362,103.84552,131,52
3209809,Super Convenient Downtown Studio,Central Region,Outram,1.28378,103.8431,126,1
3212083,"Private room Club St, awesome view!",Central Region,Outram,1.28216,103.84714,200,17
3258894,Nicely Furnished 1 Bedroom Unit,Central Region,Geylang,1.31562,103.88586,85,41
3265545,Studio with private Rooftop,Central Region,River Valley,1.29508,103.84085,181,2
3304326,"Furnishied Room Near Airport, Changi BizPark, SUTD",East Region,Tampines,1.34948,103.96321,81,10
3325956,"Craig Place, Tanjong Pagar",Central Region,Bukit Merah,1.28667,103.82935,81,0
3340547,Home Away From Home (Thomson),North-East Region,Ang Mo Kio,1.37398,103.83069,110,43
3349976,Private Room - min.6months,East Region,Pasir Ris,1.36449,103.95931,81,0
3380992,❀❀2BR Penthouse at Katong private pool,Central Region,Geylang,1.31228,103.89521,200,22
3405389,Nice appartment in shophouse condo,Central Region,Marine Parade,1.30287,103.9005,250,0
3419511,2 Bedroom Apt@ Orchard/Central Area,Central Region,River Valley,1.29499,103.83852,219,154
3433708,Tidy clean room in the north,North-East Region,Ang Mo Kio,1.37664,103.85238,221,0
3460343,Chic New Cozy Studio Apt @ Orchard,Central Region,River Valley,1.29783,103.83936,137,179
3468326,"Private, Quiet and Cozy Haven for 2",North-East Region,Serangoon,1.3736,103.87644,57,118
3479446,FEMALE DORMS in the heart of Chinatown!,Central Region,Outram,1.28318,103.84335,31,137
3479493,Dorms... in the heart of Chinatown!,Central Region,Outram,1.28458,103.84298,31,80
3558867,Hougang MRT Master Bedroom3F Front,North-East Region,Hougang,1.36719,103.89234,86,2
3580558,Gorgeous oasis near the river,Central Region,Singapore River,1.28955,103.83861,206,18
3587207,Tastefully Decorated Suburban Condo,Central Region,Bukit Timah,1.3319,103.76533,150,41
3598371,"Master Bedroom, Great Location!",Central Region,Newton,1.31122,103.84108,179,0
3639516,DORMS... in the heart of Chinatown!,Central Region,Outram,1.28496,103.84318,31,192
3651408,DORMS... in the heart of Chinatown!,Central Region,Outram,1.28439,103.84308,31,177
3667894,Chinatown at your door: Master Rm attach bathroom,Central Region,Outram,1.2852,103.84216,60,1
3671451,Nice and Cosy 1 Bedroom Apartment,Central Region,Geylang,1.31492,103.88801,89,40
3717196,DORMS - In the heart of Chinatown!,Central Region,Outram,1.28262,103.84487,31,18
3717217,4-Bed Private Room - Steps from Chinatown MRT!,Central Region,Outram,1.28354,103.84331,140,48
3752662,Nice 1 Bedroom Unit (Ground floor),Central Region,Geylang,1.3155,103.88596,85,59
3753251,Relaxed & Spacious Studio w JACUZZI,Central Region,River Valley,1.29533,103.83797,150,220
3788645,single room in sunny apartment,West Region,Clementi,1.29798,103.7668,44,3
3790364,Spacious and Furnished 1 Bedroom Apartment,Central Region,Geylang,1.31379,103.88577,93,25
3802621,1-person Bunk Bed Private Room,Central Region,Rochor,1.30376,103.85923,58,20
3803160,3-person Bunk Bed Private Room,Central Region,Rochor,1.30171,103.85959,90,6
3822245,Cozy Studio Apt @ Orchard Area,Central Region,River Valley,1.29597,103.8382,137,63
3829545,Condo room near Boonlay MRT for Sharing,West Region,Jurong West,1.34187,103.71115,50,0
3838311,"HUGE MASTER ROOM, Private Balcony",Central Region,Bukit Timah,1.32986,103.81297,150,26
3844690,Cozy Apt Near Orchrd/Botanic Garden,Central Region,Tanglin,1.32045,103.82116,237,61
3859180,Ground floor 1 Bedroom Unit,Central Region,Geylang,1.31586,103.88559,90,78
3863231,1 Bedroom Suite with balcony,Central Region,Geylang,1.31565,103.88576,94,61
3874257,"Modern 2BR Apt in Katong, free parking, near F&B",Central Region,Geylang,1.3125,103.89761,199,75
3877859,Spacious 2 Bedroom Amidst Nature,West Region,Bukit Panjang,1.3471,103.77532,158,53
3893523,Honeymoon Juccuzi Suite  (Thomson),North-East Region,Ang Mo Kio,1.37478,103.83141,135,26
3901141,Fairytale Fantasy (Thomson),North-East Region,Ang Mo Kio,1.37326,103.82962,125,18
3902423,Private Bedroom in a great flat,Central Region,Bukit Merah,1.29002,103.82315,65,5
3909587,Beautifull Master Bed room!!,Central Region,Geylang,1.31462,103.89173,69,0
3924672,"Sunny Room with attached bathroom, ",Central Region,Orchard,1.30459,103.82464,122,1
3925851,Entire 2br In Bugis - 1min MRT/Walk Everywher,Central Region,Rochor,1.30176,103.85217,244,77
3927431,Sweet Place,West Region,Bukit Batok,1.34779,103.7442,156,0
3954113,01 Queen bed private rm landed home,North-East Region,Serangoon,1.34518,103.86094,69,77
3980202,1-person Bunk Bed Private Room,Central Region,Rochor,1.30148,103.85813,58,28
3980858,The Heartlands of Sunny Singapore!,North-East Region,Hougang,1.37318,103.90152,29,5
3981252,Ultra convenient Condo close to MRT,East Region,Bedok,1.31808,103.90582,78,1
3987557,❀❀❀3BR Purple Line spacious (ERS3B3),Central Region,Kallang,1.31944,103.86222,387,47
3987930,Cosy 1 Bedroom Unit (Walk to Aljunied MRT Station),Central Region,Geylang,1.31464,103.88672,83,73
3988536,Nice and Cosy 1 Bedroom Suite,Central Region,Geylang,1.3137,103.88765,90,40
3990431,1-person Bunk Bed Private Room,Central Region,Rochor,1.30348,103.85969,58,10
3991040,master room--quiet and cozy,West Region,Jurong East,1.33856,103.73562,65,34
3995441,Large and Nicely Furnished 1 Bedroom Suite,Central Region,Geylang,1.31633,103.88539,90,49
4007891,"City, (1~2pax)Reine Alcove, Fast WIFI, Clean,Cosy",Central Region,Kallang,1.31288,103.85969,62,21
4008423,"City, Petit Alcôve, Super WIFI, Clean & Cosy",Central Region,Kallang,1.31157,103.8598,56,189
4008569,❀❀❀3BR Spacious Condo @ near novena (ga),Central Region,Novena,1.32772,103.85239,358,32
4013186,Cosy Room right in the City town.,Central Region,Outram,1.27641,103.84087,950,0
4017084,Masterbedroom for rent (Central),Central Region,Outram,1.28223,103.83867,50,0
4021128,Quiet Oasis with Greenery all round,Central Region,Bukit Timah,1.31995,103.79426,160,8
4022486,Well Furnished 1 Bedroom Suite,Central Region,Geylang,1.31444,103.88709,85,41
4026199,2BR (For 4) Apt Orchard/Stevens/UNESCO *MRT* B,Central Region,Tanglin,1.31539,103.82586,281,29
4027867,cosy apartment,Central Region,Geylang,1.31131,103.88343,60,47
4041554,Furnished 1 Bedroom Apartment,Central Region,Geylang,1.31372,103.88716,85,72
4054698,DORMS - In the heart of Chinatown!,Central Region,Outram,1.28278,103.8445,31,44
4069756,DORMS - In the heart of Chinatown!,Central Region,Outram,1.28332,103.8433,31,18
4070970,Double room in Robertson Quay,Central Region,Singapore River,1.29088,103.83891,115,0
4087935,Within a stone's throw from Orchard,Central Region,Novena,1.31718,103.84287,89,13
4091059,Airbnb Singapore Trendy CBD Enclave,Central Region,Bukit Merah,1.27254,103.8337,306,188
4108082,Central Haven,Central Region,Tanglin,1.29312,103.82979,218,289
4108447,"Studio APT 3rooms, MRT/Kallang",Central Region,Kallang,1.31409,103.87213,249,98
4122361,Whole Luxury Condo Unit just opposite lake and MRT,West Region,Jurong West,1.34546,103.72309,268,4
4124908,❀❀2BR City View Cosy @ Balestier (MZ1),Central Region,Novena,1.32419,103.85284,237,26
4138944,Studio Apt Orchard/Stevens Area #1,Central Region,Tanglin,1.31566,103.82666,118,48
4139205,Bedroom En-Suite @ Orchard/Central Area....,Central Region,River Valley,1.29671,103.83999,94,100
4139964,SPACIOUS ENSUITE CONDOROOM NEAR MRT,West Region,Jurong East,1.33678,103.73758,79,10
4144956,3 Bedrooms Executive Condo near MRT,West Region,Jurong East,1.33669,103.7374,258,14
4179725,Bright 2 br loft style conservation,Central Region,Marine Parade,1.30789,103.89646,164,4
4191852,Luxury Condo Room near Lake & MRT,West Region,Jurong West,1.34702,103.72274,62,3
4191900,Luxury Condo Room just opposite of  MRT,West Region,Jurong West,1.34615,103.72261,62,1
4193615,1-year old condo in Bukit Timah,Central Region,Bukit Timah,1.33347,103.78634,208,0
4252548,1 Bedroom Suite with Balcony,Central Region,Geylang,1.31503,103.88605,94,55
4252667,Master Room,West Region,Jurong East,1.34746,103.73203,28,0
4271250,City Ctr_RiverValley/GreatWorldCity,Central Region,Tanglin,1.29377,103.82844,160,170
4309836,1 Bedroom Condo @ St Michael's,Central Region,Kallang,1.32712,103.86468,131,36
4318386,"Study w/ private WC, pool, central",Central Region,Bukit Merah,1.27303,103.82783,89,1
4351937,2 bedroom serviced-Apt near central,Central Region,Toa Payoh,1.33078,103.86782,219,0
4360679,Simple Private Room for Two,Central Region,Geylang,1.31025,103.88326,60,109
4360811,Cosy Room For 2,Central Region,Geylang,1.31107,103.88292,60,102
4360902,"Queen Room , 5 mins from MRT",Central Region,Geylang,1.31045,103.88114,60,187
4372830,"Central, 2 piscines, sauna et hammam",Central Region,Rochor,1.30115,103.8479,224,0
4380000,Prime Orchard Master Near Somerset,Central Region,Newton,1.30475,103.84032,99,6
4399550,Brand New 2 bedroom 270 Degree Seaview Marina Bay,Central Region,Downtown Core,1.27522,103.84696,387,148
4412603,New Condo near East Coast Beach!,East Region,Bedok,1.31467,103.93974,137,35
4430984,Great apartment centrally located,Central Region,Outram,1.28142,103.84522,250,2
4431879,❀❀2BR CosyPrivate beside shopping mall,Central Region,Novena,1.32546,103.8519,149,28
4434265,Nicely Furnish & Spacious 1 Bedroom Apartment,Central Region,Geylang,1.31473,103.88733,92,33
4441346,Penthouse Studio w/ City and Partial Sea View,Central Region,Kallang,1.29775,103.88341,100,4
4446102,04 Pleasant stay in landed home,North-East Region,Serangoon,1.34432,103.86255,78,42
4450681,2BR (For 3) Apt Orchard/Stevens/UNESCO *MRT* A,Central Region,Tanglin,1.31652,103.82739,240,15
4451325,Be our guest,North-East Region,Sengkang,1.39042,103.90796,108,0
4457077,"Beautiful place, near city and park",Central Region,Bukit Merah,1.27804,103.80806,81,0
4478773,05 Queen bed ensuite landed home xx,North-East Region,Serangoon,1.3448,103.86144,67,42
4484727,Master Rm A1 nr MRT/CBP/CGH/SUTD/Boeing & SIA,East Region,Bedok,1.32899,103.94787,119,39
4486217,Sub-urban Singapore Resort Living,North-East Region,Serangoon,1.38785,103.8694,81,9
4499317,City Hall Premium Loft,Central Region,Downtown Core,1.29561,103.8543,181,40
4505008,cosy apartment 2,Central Region,Geylang,1.31017,103.88253,60,49
4521061,Lovely apartment in hip Tiong Bahru,Central Region,Bukit Merah,1.2843,103.83254,181,14
4526703,City room with Bay and sea view,Central Region,Kallang,1.30706,103.86326,131,6
4526966,Gorgeous Suite Mins from the City!,Central Region,Novena,1.3218,103.84266,69,15
4527878,Spacious and Nicely Furnish 1 bedroom Apt,Central Region,Geylang,1.31528,103.88817,87,19
4528765,❀❀2BR Spacious Unit @ Balestier (BL4),Central Region,Novena,1.3258,103.85426,201,9
4530362,If you do not have a CAR...,Central Region,Outram,1.28272,103.84707,160,0
4535456,"BUGIS area 2Br Apt Rochor MRT(1min) shopping, food",Central Region,Rochor,1.30211,103.85189,287,152
4541072,Condo-4 MRT-stops-to-Orchard-15 min,Central Region,Toa Payoh,1.34151,103.84163,75,15
4541183,Boat Quay Studio Premium Apartment with River View,Central Region,Downtown Core,1.28895,103.85033,150,117
4544814,Condo Common Room for rent,West Region,Bukit Panjang,1.34713,103.77272,50,4
4545820,5 mins walk from MRT,Central Region,Geylang,1.30972,103.88266,60,63
4561463,Spacious master bedroom ,Central Region,River Valley,1.29702,103.84145,119,1
4561484,Cosy 1 bedroom apartment (Aljunied MRT),Central Region,Geylang,1.31368,103.88597,85,49
4569941,Clean private room in Choa Chu Kang,West Region,Choa Chu Kang,1.37986,103.75087,37,0
4576362,Cozy Apt home away from home,Central Region,Geylang,1.31316,103.88735,94,73
4583589,Nice and Cosy 3BR Penthouse Condo,North Region,Woodlands,1.42798,103.78508,165,5
4584539,Master bed room for 3,Central Region,Geylang,1.31161,103.88143,90,82
4586160,Cosy apartment with amazing seaview,East Region,Bedok,1.31387,103.93484,168,3
4600559,High Floor Double Room - Dover Area,Central Region,Queenstown,1.30489,103.78451,81,2
4608708,Charming & design apt near Orchard,Central Region,River Valley,1.29238,103.83978,287,3
4613432,Nicely furnished apt close to City,Central Region,Geylang,1.31307,103.88623,119,23
4616523,Cozy apartment near the city,Central Region,Geylang,1.31464,103.88642,85,80
4616537,Comfortable apt home away from home,Central Region,Geylang,1.3145,103.88607,94,76
4628393,Home in the City,Central Region,Geylang,1.32962,103.88684,49,0
4640273,索美赛River Valley,Central Region,River Valley,1.29887,103.83603,146,0
4645834,Hotel concept rooms in apartment ,Central Region,Geylang,1.31102,103.88139,60,36
4656221,Cosy Apartment @ Geylang,Central Region,Geylang,1.3096,103.88166,60,57
4656316,EverGreen Residences ,Central Region,Geylang,1.31045,103.88148,60,39
4664392,"Prime CBD Club Street, Heritage S3",Central Region,Outram,1.28175,103.84433,132,74
4683314,3BR (For 5)Apt Orchard/Stevens/UNESCO *MRT* Sup,Central Region,Tanglin,1.31761,103.8264,319,18
4702699,Charming 2BR unit with Full Privacy,West Region,Clementi,1.29882,103.76499,181,2
4712676,HOMESTAY- Deluxe Room with SEALY King Bed + B'fast,North-East Region,Ang Mo Kio,1.36573,103.83874,56,2
4721463,Colonial Black and White with Pool,Central Region,Queenstown,1.30008,103.79455,269,1
4722005,Walking Distance to MRT,North Region,Sembawang,1.45328,103.82199,19,0
4754788,A full-furnished and equipped home!,East Region,Pasir Ris,1.36687,103.95896,250,0
4761064,Spectacular Views of City Fireworks,Central Region,Marine Parade,1.29704,103.8886,215,5
4768668,Comfy Room w Greenery View Hospitable Private Cond,East Region,Bedok,1.31217,103.91206,65,51
4771752,Everything You Need in SG - Room 2,Central Region,Museum,1.29929,103.84774,110,4
4787666,New Condo at Lakeside MRT - 1 Pax,West Region,Jurong West,1.34294,103.71752,50,1
4788392,Lakeholmz Condo Near Lakeside MRT,West Region,Jurong West,1.34147,103.71788,75,1
4802295,2br Orchard Rd view Next to MRT,Central Region,Newton,1.30479,103.83518,281,21
4817784,Master Bedroom  with Serene Greenery,West Region,Clementi,1.3311,103.76794,99,6
4818187,"""B""-Private Bathroom Cosy Bedroom",Central Region,Bukit Timah,1.33108,103.76853,78,27
4818191,"""A""-Private Bathroom Spacious Bedrm",Central Region,Bukit Timah,1.33179,103.7664,87,18
4828432,2br Luxury Orchard Rd Beside MRT,Central Region,Orchard,1.30352,103.83483,319,13
4841308,Straits Settlement Theme - 1 BR Apt,Central Region,Downtown Core,1.27414,103.84596,200,3
4863317,highrise heritage queenbed RmA1,Central Region,Outram,1.2851,103.84195,42,1
4869221,Fireworks view* hiriseEnsuite8 + PrivateLivingRm,Central Region,Outram,1.28614,103.8421,99,2
4899063,Singapore Student Homestay,Central Region,Toa Payoh,1.33305,103.87235,46,0
4916186,Convenient apt home away from home,Central Region,Geylang,1.31481,103.88611,119,19
4926023,Private Room: Modern luxury condo,Central Region,Orchard,1.3069,103.83188,125,0
4926170,Room 4B in Terrace House @ Thomson Village,Central Region,Bishan,1.35418,103.8336,60,3
4926192,Common Room @ Boon Keng,Central Region,Kallang,1.31536,103.86045,150,0
4926634,Master Room With Balcony for 3,Central Region,Geylang,1.31114,103.88278,90,150
4933616,Short Stay accommodation for Ladies,Central Region,Outram,1.28508,103.84292,25,0
4934283,1/2Suite@payalebar/aircon/near Serangoon MRT/cheap,North-East Region,Hougang,1.349,103.88105,35,6
4969304,"SGCT26-3: Up Chinatown MRT,WIFI,Aircon",Central Region,Outram,1.28361,103.84276,58,168
4969777,New!!! Cozy 1 Bedroom Apt in the City,Central Region,River Valley,1.29582,103.84221,119,6
4973227,Boat Quay Studio Apartment,Central Region,Singapore River,1.2873,103.84894,186,85
4978175,Cat Lovers: Quaint Vintage House ,East Region,Bedok,1.32995,103.94201,1000,0
4979889,Studio Apartment near UNESCO Site/Orchard #38,Central Region,Tanglin,1.31671,103.82831,144,18
4990392,Cosy Apartment for Rent,Central Region,Geylang,1.31091,103.88131,60,63
4990462,Evergreen Residences @ Geylang,Central Region,Geylang,1.3103,103.88191,60,35
4996744,Comfortable and Centrally Located ,Central Region,River Valley,1.29435,103.83551,125,1
5006143,Fabulous & Cosy Apt. in the City.,Central Region,Queenstown,1.30505,103.79822,82,3
5018128,Ideal Home,East Region,Bedok,1.33199,103.94126,150,0
5018606,Modern Master Room (private bath) ,Central Region,Toa Payoh,1.3293,103.85402,50,0
5024661,2 Bedroom unit near the City,Central Region,Geylang,1.31553,103.88662,181,62
5034562,Central 65 Hostel & Cafe,Central Region,Rochor,1.30722,103.85733,37,0
5036145,Cozy Room in the Heart,Central Region,Kallang,1.31408,103.854,92,8
5040689,Exquisite & cosy room for rental,North-East Region,Ang Mo Kio,1.37043,103.83038,37,3
5042231,Spacious 1 bedroom with patio in city(Sophia Road),Central Region,Rochor,1.30147,103.84732,100,1
5050823,Private room in apartment,West Region,Clementi,1.30438,103.76162,229,0
5052014,Modern Serviced Studio in CBD w MRT,Central Region,Bukit Merah,1.27546,103.84014,158,3
5079606,"I am Roger,welcome to my apartment",West Region,Choa Chu Kang,1.38088,103.75983,160,4
5082033,Private room in Central Singapore,Central Region,Kallang,1.31403,103.84667,60,3
5095636,❀❀❀3BR near town and shopping mall,Central Region,Novena,1.31977,103.85305,300,25
5101196,"Central Location,3 Mins Walk to MRT",Central Region,Kallang,1.31326,103.85289,390,157
5111893,Cosy Room with Workstation & WiFi,Central Region,Tanglin,1.29611,103.82991,69,16
5116961,ROOM in magazine-featured apt,Central Region,Bukit Merah,1.28257,103.83125,132,2
5117966,Cosy Apartment 4,Central Region,Geylang,1.31153,103.88118,60,17
5118006,Evergreen Residences 2,Central Region,Geylang,1.31105,103.88313,60,55
5118306,Condo on prime real estate,Central Region,Novena,1.31445,103.84049,208,0
5128182,Fantastic entire 1BR in toplocation,Central Region,Outram,1.28095,103.84155,164,5
5129422,Master Rm A3 nr MRT/CBP/CGH/SUTD/Boeing & SIA,East Region,Bedok,1.33043,103.94814,56,39
5177256,Little Habitat 2- Love Local.,Central Region,Bishan,1.35376,103.83178,49,70
5184871,Little Habitat 1-  Love local.,North Region,Central Water Catchment,1.35332,103.82851,49,98
5185612,Upscale Studio @ Emerald Hill 5,Central Region,Newton,1.30634,103.84011,160,76
5186159,Master Room B1 nr MRT/CBP/CGH/SUTD/Airport/SIA,East Region,Bedok,1.32873,103.94814,67,56
5186205,Master Room B2 nr MRT/CBP/CGH/SUTD/Airport/SIA,East Region,Bedok,1.3284,103.94773,67,76
5186243,Master Room B3 nr MRT/CBP/CGH/SUTD/Airport/SIA,East Region,Bedok,1.33027,103.94787,67,71
5195270,✪1BR @ Town walking distance to Bugis,Central Region,Rochor,1.30163,103.84839,137,18
5214091,Spacious 1 Bedroom Apt,East Region,Bedok,1.30877,103.90962,90,21
5214226,Little Habitat 3- Love Local.,Central Region,Bishan,1.35426,103.82829,49,61
5233415,Furnished CBD Serviced Studio w MRT,Central Region,Bukit Merah,1.27599,103.8406,158,6
5241732,✪✪✪3BR Neat Cosy Near Mrt & Town (ga),Central Region,Novena,1.32669,103.84227,300,31
5243402,Room with Mezzanine in Penthouse,Central Region,Geylang,1.31537,103.88546,154,0
5246432,Central 1BR Suite above MRT in Chinatown (#64),Central Region,Outram,1.27962,103.83986,250,41
5253599,Exquisite Balinese studio for rent,Central Region,Kallang,1.3151,103.8585,81,9
5253639,Evergreen Residences @ Singapore,Central Region,Geylang,1.3114,103.88322,60,25
5265322,Charming space in city centre,Central Region,Kallang,1.31779,103.85225,224,13
5272363,#24 TBC after renovation,Central Region,Tanglin,1.31539,103.82758,149,14
5272598,Nicely renovated 1 bedrm Walk Up Apt (Sophia Rd),Central Region,Rochor,1.30244,103.84733,90,9
5276634,Master Room B4 nr MRT/CBP/CGH/SUTD/Airport/SIA,East Region,Bedok,1.32845,103.94697,69,43
5282397,✪✪✪3BR Luxury Near Town & Novena (ga),Central Region,Novena,1.32611,103.84476,300,42
5283776,Long Term Room rental.,East Region,Tampines,1.35725,103.95348,650,0
5288111,"花拉公园公寓短期普通房出租12月1-15号,也可长租7个月",Central Region,Kallang,1.31665,103.85351,62,0
5290367,Condo within a stone's throw from Orchard,Central Region,Novena,1.31489,103.84165,149,1
5302410,Double Room in Condo at Tiong Bahru,Central Region,Bukit Merah,1.2856,103.82841,60,7
5319766,Large Master Bedroom with ensuite ,Central Region,Outram,1.28185,103.84657,160,0
5331445,❀❀2BR Luxury Phenthouse near town (msl2),Central Region,Kallang,1.32815,103.86575,201,25
5343407,1 bed room + 1 sofa bed (E),Central Region,Geylang,1.31039,103.8845,75,4
5348037,Master Rm 70R2 nr Expo/SUTD/CBP/Airport/Boeing,East Region,Tampines,1.34159,103.95868,54,41
5348703,S3  @ City Central,Central Region,Rochor,1.30514,103.85597,119,158
5355703,Master Rm 70L2 nr Expo/CBP/Airport/Boeing/CGH,East Region,Tampines,1.34144,103.95809,54,29
5355795,S2 @ City Central,Central Region,Rochor,1.30402,103.85423,115,198
5369727,Huge Room in the heart of Singapore,Central Region,Singapore River,1.29224,103.84259,146,0
5376182,S7 @ City Central,Central Region,Rochor,1.30376,103.85471,119,170
5376240,S6 @ City Central,Central Region,Rochor,1.30543,103.85647,115,188
5377148,S1 @ City Central,Central Region,Rochor,1.30541,103.85508,90,153
5377342,S5 @ City Central,Central Region,Rochor,1.30386,103.85459,106,246
5405213,Private bedroom in May,Central Region,Kallang,1.32723,103.86533,208,0
5406502,Cozy clean room in a breezy condo ,East Region,Bedok,1.31097,103.93814,78,0
5424565,"1 BR apartment, mins to CBD (U)",Central Region,Kallang,1.31281,103.84826,106,22
5424650,Private room in a 2 bedroom condo,Central Region,Marine Parade,1.30197,103.89935,49,10
5428153,Brand new apartment mins to CBD (E),Central Region,Geylang,1.31243,103.88441,90,8
5428173,"Mins to CBD, 2 BR apartment",Central Region,Geylang,1.31005,103.87613,219,1
5428995,Best master room renting-serangoon,North-East Region,Serangoon,1.34489,103.8724,58,3
5436010,LUXE Series Executive Guest Room,North Region,Yishun,1.41482,103.83226,60,0
5446857,Large & luxury Studio in CBD/MRT,Central Region,Bukit Merah,1.2761,103.84071,228,2
5448209,"CBD Studio: spacious, serviced, MRT",Central Region,Bukit Merah,1.27493,103.84029,200,5
5464246,"1min walk to MRT, 1Double Bed for 1-2px,Quiet&Cosy",Central Region,Geylang,1.3291,103.88257,107,7
5472242,Great View 1BR Apt in City Fringe,Central Region,Bukit Merah,1.27574,103.83632,190,45
5493930,Luxurious En Suite 1 Near Orchard,Central Region,Novena,1.3195,103.84791,99,238
5494971,Grand En Suite 2 Near Orchard,Central Region,Novena,1.31773,103.84633,94,191
5495447,"Cozy 1BR , mins to CBD (U)",Central Region,Kallang,1.31372,103.848,131,18
5504230,Family Apartment in Central - min walk to 3 MRTs,Central Region,Kallang,1.30953,103.85958,194,9
5529062,600sqft New York Bachelor Suite. SG,Central Region,Bukit Merah,1.27549,103.8373,500,0
5540894,Humble home buried in the west,West Region,Jurong West,1.35162,103.70342,250,54
5543423,Spacious 2BR Apt at Orchard Road,Central Region,Museum,1.29891,103.84659,350,44
5551665,"Holland Village Condo, 1 min away from MRT",Central Region,Bukit Timah,1.31164,103.79555,60,14
5573458,"Amazing MasterBed Room, mins to MRT",North Region,Sembawang,1.44201,103.82403,111,3
5575968,My Room,West Region,Clementi,1.31244,103.75869,1000,0
5584157,Best Value In Town! All Student+Guest loves it!,North Region,Woodlands,1.44299,103.79424,37,107
5597753,For Female tenants-AC room,North-East Region,Serangoon,1.35411,103.86946,56,0
5598946,Condo Room - Acc MRT 5 stps orchard,North-East Region,Serangoon,1.35047,103.86374,81,0
5607234,✪✪2BR Amazing City View (zsm),Central Region,Novena,1.32568,103.85009,250,12
5609097,Cozy apartment in River Valley,Central Region,River Valley,1.29473,103.83885,131,27
5609608,Very Cozy  House With Housekeeping+Laundry Service,North Region,Woodlands,1.44196,103.7939,37,64
5610714,✪1BR city fringe Verge (VV),Central Region,Novena,1.32574,103.85181,137,6
5645349,The Chronicles of Ben,Central Region,Newton,1.30527,103.83424,249,25
5646028,4br Orchard Propinquity next to MRT,Central Region,Orchard,1.30372,103.83478,628,14
5650675,Common Room with Own Bathroom @  Eunos MRT,East Region,Bedok,1.31494,103.90681,44,11
5652706,Cozy Double (Website hidden by Airbnb) . Elevator,North-East Region,Hougang,1.36515,103.87495,118,7
5655773,Hougang Street 51 private room,North-East Region,Hougang,1.37762,103.89024,800,0
5667427,LUXE Series Premium Guest Room,North Region,Yishun,1.41594,103.83391,81,0
5676325,Holland Village Double Bedroom :0),Central Region,Bukit Timah,1.31263,103.79793,61,10
5704432,My Crib,Central Region,Toa Payoh,1.3356,103.86592,300,0
5709242,Homely 1 Bedder close to City,Central Region,Geylang,1.31208,103.88475,110,3
5711910,"Modern 2BR, Ocean View",Central Region,Marine Parade,1.29962,103.88732,175,0
5714743,New!!! Cozy One Bedroom Apartment in River Valley,Central Region,River Valley,1.29523,103.84039,115,8
5750637,Nicely furnish 1 bedroom Walk Up Apt (Sophia Rd),Central Region,Rochor,1.30258,103.84811,90,24
5787221,Beautiful unit at The Sail@Marina,Central Region,Downtown Core,1.28209,103.85191,237,16
5798211,The Studio Suite,East Region,Tampines,1.34587,103.96046,85,151
5807596,Small Cozy Masterbed room,Central Region,Bukit Merah,1.27513,103.81075,2000,0
5816693,Convenient & cheap room in Central,Central Region,Kallang,1.31411,103.84805,56,0
5819462,standard room with air conditioner,North-East Region,Sengkang,1.38777,103.89649,121,0
5827713,The Private Sanctuary,East Region,Tampines,1.34495,103.96043,69,285
5827998,The Lily Room,East Region,Tampines,1.34463,103.96107,60,296
5832741,Condo Rm near Boon Lay MRT Station,West Region,Jurong West,1.35015,103.69571,43,19
5853047,Cozy 1 Bedroom Apt in River Valley,Central Region,River Valley,1.29638,103.83975,119,37
5854894,Near central heritage house Common room C1.,Central Region,Kallang,1.31621,103.85614,49,16
5855352,Amazing View at Central Location,Central Region,Novena,1.32266,103.85221,75,0
5856080,Master room at Eunos MRT,Central Region,Geylang,1.31677,103.90182,44,6
5856458,1 Condo Single Room near to Boon Lay MRT,West Region,Jurong West,1.35177,103.69583,40,14
5864798,"主卧独立卫生间,巴士10分钟直达机场",North-East Region,Punggol,1.39798,103.91082,118,0
5875270,❀❀ 2BR BR High Floor City View To Town (BL1),Central Region,Novena,1.32584,103.85379,218,21
5875532,newly furnitured condo in prestige ,North-East Region,Hougang,1.36278,103.87799,50,0
5882204,Minimum 90 days rental,East Region,Bedok,1.3212,103.91483,182,0
5887567,BISHAN GOOD LOCATION COM ROOM ,Central Region,Bishan,1.35071,103.85088,119,0
5889741,Entire Home in the Heart of City,Central Region,Rochor,1.30086,103.85439,190,195
5897641,CITY-CHINATOWN,Central Region,Outram,1.2843,103.84738,125,133
5897823,"Private room, 8min walk to MRT",Central Region,Queenstown,1.30544,103.78462,69,0
5899156,Studio near to the City (Opposite Chinatown MRT),Central Region,Outram,1.28407,103.84385,110,34
5900689,Private room! King sized bed,East Region,Pasir Ris,1.36788,103.97171,100,0
5902912,Clean & Comfy Budget Private Room,North-East Region,Sengkang,1.3991,103.89017,50,83
5908083,Near central FARRER S1 heritage with huge Balcony.,Central Region,Kallang,1.31642,103.85776,112,42
5919270,The Antiquity Room,East Region,Tampines,1.34471,103.96249,81,245
5920090,Project Bugis: Designer Deluxe Twin,Central Region,Rochor,1.30218,103.86036,87,5
5922010,Project Bugis: Standard Double Loft,Central Region,Rochor,1.30162,103.86022,76,39
5922317,Project Bugis: Standard Twin Room,Central Region,Rochor,1.30223,103.86083,76,23
5924053,Ensuite Condo Room - Lakeside MRT,West Region,Jurong West,1.34392,103.7187,81,0
5939811,"SPACIOUS 2-BED, HEART OF THE CITY",Central Region,Tanglin,1.29376,103.82802,281,8
5973183,Cosy 2 BR Condo next to Beach & Sea,East Region,Pasir Ris,1.37854,103.96119,189,43
5975052,New home,North Region,Yishun,1.41621,103.84424,62,11
6013152,Spacious Room in Condominium,Central Region,Queenstown,1.28227,103.78501,44,0
6020248,"Condo@Holland Village, 1min to HV MRT",Central Region,Bukit Timah,1.31137,103.79544,75,8
6023517,Near central FARRER S2 heritage with Roof Terrace,Central Region,Kallang,1.31534,103.85822,100,83
6026527,3 mins walk to MRT Station - Private studio room,East Region,Bedok,1.3201,103.91476,131,0
6026528,Cozy room near Changi business park,East Region,Bedok,1.31934,103.91574,90,5
6034462,Charming apt in River Valley,Central Region,River Valley,1.29467,103.83839,119,56
6034863,Ground Floor Cosy 1 bedroom Apartment,Central Region,Geylang,1.31466,103.88736,90,68
6041066,Home Sweet Home,East Region,Bedok,1.3316,103.94739,250,0
6055601,Cosy room with Wifi @ River Valley,Central Region,Tanglin,1.29504,103.82971,58,6
6068744,A jungle view with birdsong,West Region,Bukit Panjang,1.36634,103.76963,110,33
6079533,Master room 2 with a pool view,East Region,Pasir Ris,1.35894,103.96605,31,0
6099703,Cozy apartment close to the City,Central Region,Geylang,1.31323,103.88802,82,130
6100964,MODERN STUDIO APT ALONG ORCHARD RD,Central Region,Orchard,1.30067,103.8392,219,118
6117032,Cozy one bedroom near the City,Central Region,Geylang,1.31443,103.88751,85,124
6120794,Nicely  furnished 1 bedroom unit,Central Region,Geylang,1.31648,103.89486,85,62
6128096,Cozy apartment close to town,Central Region,Geylang,1.31394,103.8866,90,51
6141976,Nice and Cosy 1 bedroom Apartment,Central Region,Geylang,1.31585,103.88554,110,24
6142181,Ground floor Cosy 1 bedroom apartment,Central Region,Geylang,1.31414,103.8881,85,79
6142390,Cosy Ground floor unit with Patio,Central Region,Geylang,1.3156,103.88776,92,26
6142880,Cozy & Convenient Apt Close to Town,Central Region,Geylang,1.31312,103.88663,94,29
6147142,The Music Room,East Region,Tampines,1.34468,103.96102,56,263
6147375,Common Room @ Reasonable Price,North-East Region,Punggol,1.39866,103.90555,49,0
6170451,Expats' choice!! Suites master room,East Region,Bedok,1.32112,103.91641,119,3
6178568,Open Concept Studio (Opposite Chinatown MRT),Central Region,Outram,1.28563,103.845,106,22
6179573,Spacious loft Apartment (Opposite Chinatown MRT),Central Region,Outram,1.28362,103.84509,131,24
6183734,Cozy one bedroom close to the City,Central Region,Geylang,1.31352,103.88728,82,75
6190850,TRIPLE-SHARING BED SPACE AVAILABLE,Central Region,Queenstown,1.29297,103.76953,19,3
6203213,near town mrt Amk condo com room,North-East Region,Ang Mo Kio,1.37741,103.84776,62,2
6206621,YOUSHOULDSTAYHERE-3BR-MT E hospital,Central Region,Novena,1.32734,103.84433,300,26
6221711,A Cozy Room at a Heritage Area,Central Region,Bukit Merah,1.27495,103.83571,81,162
6242964,Resort Styled Apt With Sea View,East Region,Bedok,1.31265,103.9366,165,8
6250145,Junior Master Bedroom for RENT,Central Region,Geylang,1.3131,103.89178,60,0
6250660,Central one bedroom flat,Central Region,River Valley,1.29568,103.84042,81,0
6253881,One bedroom w/ attached bathroom,Central Region,Bishan,1.35613,103.84983,106,0
6261313,"Holland Village Condominium, 1 min from MRT",Central Region,Bukit Timah,1.31238,103.79542,78,9
6269622,TWIN SHARING BED SPACE AVAILABLE,Central Region,Queenstown,1.29154,103.76891,25,2
6271100,Studio unit in Chinatown opp MRT,Central Region,Outram,1.28368,103.84563,115,25
6287204,Simple & Cozy 1 BD resort-like apt,North Region,Woodlands,1.42803,103.78584,181,11
6297371,Comfy 1 BR Apt in River Valley,Central Region,River Valley,1.29561,103.84035,119,21
6299510,Cosy Loft Apartment in Chinatown,Central Region,Outram,1.28359,103.84564,119,21
6300043,Studio Apartment (Opposite Chinatown MRT),Central Region,Outram,1.28342,103.84553,110,44
6300577,"1Min walk to MRT, Ensuite Studio Room for 1 person",Central Region,Geylang,1.32958,103.88464,94,15
6305559,Master The Sail@marina bay,Central Region,Downtown Core,1.28026,103.85296,90,1
6308806,"Spacious room, Convenient Location",West Region,Bukit Batok,1.35586,103.75322,35,2
6310906,"Condo 2brd Apt, 3 min to metro",Central Region,Toa Payoh,1.33683,103.87099,200,0
6317686,highrise EnsuiteM1A + attached bathroom,Central Region,Outram,1.28326,103.84318,56,1
6340570,Bedroom,Central Region,Bishan,1.3461,103.84932,150,0
6340605,Brand new studio apartment,Central Region,Novena,1.32526,103.84718,100,0
6342987,Condo for rent in River valley,Central Region,Tanglin,1.29584,103.82675,169,2
6349839,Best Location & Great View!,Central Region,Singapore River,1.28985,103.84782,110,6
6352091,Master Room with bathroom near MRT,West Region,Bukit Panjang,1.36895,103.76637,69,1
6352827,Lor 17 L3R1 Masterbed room w private toilet,Central Region,Geylang,1.31322,103.87976,50,99
6352835,"Modern, Cosy Bedroom Available!",Central Region,Rochor,1.30291,103.84871,69,4
6381495,Ground Floor Cosy 1 bedroom with Patio,Central Region,Geylang,1.31532,103.8874,94,50
6419148,Derek & Callie's Room of Sweet,North Region,Yishun,1.42841,103.83065,56,22
6426115,Maison Sims201,Central Region,Geylang,1.31644,103.88702,199,59
6426551,Comfortable 2 Bedroom Apartment,Central Region,Geylang,1.31314,103.88681,181,48
6427139,Great place for chilling out,West Region,Jurong West,1.34007,103.6962,81,0
6431505,Cozy 1 Bedroom Apt 10  mins to Aljunied MRT,Central Region,Geylang,1.3132,103.88757,82,60
6440242,Cosy 1 bedroom Walk Up Apartment,Central Region,Rochor,1.30288,103.84825,89,3
6469942,Clean  Room @Holland Village,Central Region,Bukit Timah,1.31174,103.79713,50,1
6475373,✪✪2BR Gorgeous GreatViewNearCentral (zsm),Central Region,Novena,1.32786,103.84907,218,35
6481052,1 bedroom service apartment in orchard near subway,Central Region,River Valley,1.29628,103.84034,208,23
6485145,Master Room for Families,Central Region,Geylang,1.31097,103.8826,90,115
6495539,Master room with a private bathroom,Central Region,Geylang,1.31271,103.88891,79,0
6507877,観光や出張に最適な立地の落ち着いたｱﾊﾟｰﾄﾒﾝﾄ,Central Region,Downtown Core,1.29554,103.85428,197,0
6518372,Beautiful Apartment above MRT in Chinatown #37,Central Region,Outram,1.28107,103.84132,304,115
6518470,Lg bedroom/Pvt bath - renovated apt,Central Region,Queenstown,1.29497,103.80752,75,0
6528111,Entire Flat in Tiong Bahru,Central Region,Bukit Merah,1.28315,103.83406,201,3
6528691,Next to Botanical Gardens,Central Region,Tanglin,1.30908,103.81955,150,0
6529707,Room 1 - Affordable room near the university,West Region,Clementi,1.29361,103.76746,81,34
6531247,T - Cozy City Studio @ Tiong Bahru,Central Region,Bukit Merah,1.28374,103.83513,110,28
6531497,Nice House w/ Swimming Pool,Central Region,Bukit Timah,1.33081,103.80396,360,0
6547248,Stay at Bukit Timah natural reserve,Central Region,Bukit Timah,1.34486,103.76871,76,2
6553302,Expats' choice!! Cozy room near MRT,East Region,Bedok,1.32089,103.91503,90,2
6581009,T- Quiet Park View Apt @ Tiong Bahru,Central Region,Bukit Merah,1.28357,103.82995,115,11
6591835,Lovely double bedroom with ensuite,Central Region,River Valley,1.29289,103.84007,65,2
6603464,"Amazing Suite-room, mins to MRT (3)",North Region,Sembawang,1.43972,103.8226,53,8
6603488,T - Calm & Quiet City Apt 5 mins to MRT.,Central Region,Bukit Merah,1.28214,103.83121,125,3
6605136,Cozy and spacious 1 bedroom Apartment,Central Region,Geylang,1.31452,103.88589,100,22
6607671,Central Entired Condo Apartment -min walk to 3 MRT,Central Region,Kallang,1.31015,103.85967,222,1
6619955,Cozy 1 Bedroom Apt Close to Town,Central Region,Geylang,1.31364,103.88734,99,55
6620261,Cozy Hotel Style Studio(with Pool),Central Region,Novena,1.32401,103.853,71,3
6628037,❀1BR Nice View Near Central (ZSM1b1),Central Region,Novena,1.32831,103.84834,119,13
6630341,Affordable stay near Serangoon!,North-East Region,Serangoon,1.34471,103.86898,81,90
6638508,Lovely Room With a View,Central Region,Kallang,1.313,103.85922,76,11
6663672,新加坡传统祖屋 客厅大 通风好,Central Region,Downtown Core,1.27914,103.85002,89,0
6663906,"Room-INSEAD, Metropolis, NTU, NUH-min 3-month rent",Central Region,Queenstown,1.30531,103.78374,87,18
6668889,28fl Studio Apt in Newton 668 sqft,Central Region,Newton,1.31152,103.84027,131,2
6669434,best deal!Very big room $18/night,West Region,Choa Chu Kang,1.37734,103.75464,18,1
6679887,Cozy 2 bedroom Apt near the City,Central Region,Geylang,1.31467,103.88749,181,40
6685809,Ground Floor Cosy 1 Bedroom Unit,Central Region,Geylang,1.31374,103.88752,85,99
6686851,Ground Floor Nice 1 bedroom unit,Central Region,Geylang,1.31375,103.88663,85,28
6693516,Modern Minimalistic Studio,East Region,Bedok,1.31683,103.91109,100,11
6697057,Modern apartment in Robertson Quay,Central Region,Singapore River,1.29209,103.84109,137,27
6698970,"PENTHOUSE, TWIN-ROOMS  FOR  UP  TO  6  GUESTS.",North Region,Sembawang,1.44154,103.82393,54,1
6713936,Food Paradise Apartment,East Region,Bedok,1.33331,103.94124,69,3
6716844,4-person Bunk/Loft Bed Private Room,Central Region,Rochor,1.30205,103.85804,119,2
6717992,Palo,Central Region,Newton,1.31569,103.8367,100,0
6718219,Explore Serangoon!,North-East Region,Serangoon,1.34399,103.87076,67,51
6718514,Affordable Room Stay in Serangoon,North-East Region,Serangoon,1.34604,103.87111,69,70
6723509,Beautiful New 2BR Apartment,East Region,Bedok,1.3125,103.91188,219,25
6768997,"Central, stylish, quiet room w bath",Central Region,Museum,1.29836,103.84279,81,0
6774977,ORCHARD FAMILY ROOM 6,Central Region,River Valley,1.29453,103.83733,78,111
6790378,Near Orchard Single Room-Female Only,Central Region,Novena,1.31564,103.84075,1800,0
6803701,"AmazinBeautiful Resort Up to 6 Guests, mins to MRT",North Region,Sembawang,1.44151,103.82377,53,2
6816530,Cosy Private Room at Holland Road,Central Region,Bukit Timah,1.31821,103.77942,75,0
6823606,Apartment Central - Farrer Park,Central Region,Kallang,1.31806,103.85172,94,4
6824319,new lux  3 BR condo   amazing pool,West Region,Choa Chu Kang,1.38056,103.75988,239,7
6825410,"Affordable HDB spacious Private Room, long term",West Region,Bukit Batok,1.35955,103.75002,181,0
6826957,Spacious double room + private bath in town CBD,Central Region,Singapore River,1.28777,103.84907,125,74
6829554,Home with garden view in Bishan (min 3 mth stay),Central Region,Bishan,1.35011,103.84667,100,0
6831622,Cozy 1BR condo 20min to downtown!,Central Region,Queenstown,1.30728,103.78113,150,21
6837947,Flat for Rent,North-East Region,Hougang,1.37877,103.8895,2300,0
6845452,Double room in modern condo w/ pool,Central Region,Geylang,1.31406,103.88626,60,2
6850935,Near central FARRER S3 Cosy Studio.,Central Region,Kallang,1.31584,103.85582,94,67
6855548,1BR in city centre with big balcony,Central Region,Bukit Merah,1.27517,103.83639,160,0
6856988,Mountbatten Room,Central Region,Geylang,1.30767,103.88146,81,0
6888824,Master Room for 3 @ Evergreen,Central Region,Geylang,1.31117,103.88298,90,79
6890874,Newly Renovated Loft in the Heart of Downtown,Central Region,Outram,1.28376,103.83965,93,3
6891247,1960s aLoftbed Rm w wash basin & TV & window,Central Region,Kallang,1.30886,103.86363,50,1
6891630,Lavender Queenbed RmA Heritage windows: 5mwalkMRT,Central Region,Kallang,1.30854,103.86291,36,4
6901703,Stunning Shophouse w/ Maid & Pool,Central Region,Geylang,1.31226,103.88312,139,0
6906010,Studio in the heart of Chinatown,Central Region,Outram,1.28343,103.84512,115,44
6918746,Double Room near City Center.,Central Region,Bukit Merah,1.28718,103.8262,85,0
6939552,Private Room near Temasek Poly & Airport,East Region,Tampines,1.34764,103.94037,200,0
6940054,Luxury CBD city Marina Bay Sand Asia Square MBFC,Central Region,Downtown Core,1.27988,103.85065,268,34
6941608,Black and White Studio 4,Central Region,Rochor,1.30233,103.84643,100,30
6947366,Modern home at city fringe Orchard,Central Region,Tanglin,1.29432,103.82612,151,18
6959323,Pine Grove Condo,Central Region,Bukit Timah,1.31887,103.77462,50,1
6962492,Joo Chiat Heritage Area,Central Region,Geylang,1.31333,103.90434,139,19
6968350,ORCHARD FAMILY ROOM 5,Central Region,River Valley,1.29647,103.83779,74,129
6978031,Premium livin in marina bay finance,Central Region,Downtown Core,1.27946,103.85592,268,22
6983613,Cosy 1 bedroom with Patio (Ground Floor),Central Region,Geylang,1.31496,103.88691,94,30
6993627,Cosy 1 Bedroom Unit,Central Region,Geylang,1.3144,103.88671,85,81
6995482,Ground Floor Nicely Furnished 1 Bedroom Apartment,Central Region,Geylang,1.3143,103.88604,99,17
6999333,"Comfortable Sofa, nice condo unit",Central Region,Outram,1.28898,103.83944,28,0
7010578,A vintage walkup at East Coast,East Region,Bedok,1.30898,103.91219,87,72
7015796,Cozy 1 bedroom Unit,Central Region,Geylang,1.31536,103.88574,85,62
7015864,T - Charming City Studio in Tiong Bahru,Central Region,Bukit Merah,1.28411,103.83254,132,9
7031773,Lavender window roomA1 > 4min lav MRT > 3min Bugis,Central Region,Kallang,1.3123,103.86255,37,1
7039222,2BR Apt near Orchard Rd/Bugis (1min to Rochor MRT),Central Region,Rochor,1.3026,103.85195,250,248
7042831,Prestigious cbd apartment marinabay,Central Region,Downtown Core,1.27967,103.85539,268,49
7053111,Sunny Room in Downtown Singapore,Central Region,Novena,1.32402,103.85313,75,7
7054222,Black & White Studio 5,Central Region,Rochor,1.30105,103.84786,100,226
7069513,Common Serviced Room,North-East Region,Sengkang,1.3865,103.89341,25,2
7078717,Spacious 1 bedroom apartment (Walk to Aljunied MRT,Central Region,Geylang,1.3148,103.88593,90,16
7085521,♥♥2BR Spacious & Comfy Apartment @ Kim keat (BL4),Central Region,Novena,1.32618,103.85394,235,12
7095558,your serviced room in town!,Central Region,Kallang,1.31737,103.85084,100,1
7105265,shower wash basin in YOUR solo room 1970s unit,Central Region,Geylang,1.31417,103.88224,44,0
7107229,Stunning resort near Botanic Garden,Central Region,Bukit Timah,1.31509,103.80398,200,15
7117201,New Studio Apartment near to city,Central Region,Kallang,1.32647,103.86453,200,0
7118321,Master Bedroom in Normanton Park,Central Region,Queenstown,1.28618,103.79122,50,1
7118763,blk658D JURONG WEST ST 65,Central Region,Bukit Merah,1.27173,103.82232,43,0
7123932,Cosy Bedroom central spacious flat,Central Region,Rochor,1.30331,103.84848,75,3
7138922,Ground floor Cosy 1 bedroom,Central Region,Geylang,1.31405,103.88619,94,29
7139056,Spacious 1  Bedroom Apartment (Walk to Aljunied),Central Region,Geylang,1.314,103.88576,90,18
7143817,"Walk to MRT,  Cozy Apartment@ Kembangan",East Region,Bedok,1.32087,103.91189,135,133
7152327,Design apt - heart of Singapore,Central Region,Downtown Core,1.27516,103.8453,140,4
7152364,Heritage Art-Decor Studio @Tiong Bahru,Central Region,Bukit Merah,1.28305,103.82722,129,25
7154662,2 Bedroom Apt Close to Town,Central Region,Geylang,1.31382,103.88744,219,5
7162659,"Nice 2+1BR condo next to MRT, Insead, NUH, Sentosa",Central Region,Queenstown,1.30623,103.78258,181,9
7164777,Feel at home in truly Singapore !,Central Region,Bukit Timah,1.3118,103.79917,490,3
7165778,Simple bedroom near Sentosa Island,Central Region,Bukit Merah,1.27242,103.80923,75,37
7169214,"Quiet 2+1BR condo near MRT,City,Sentosa,INSEAD,NUH",Central Region,Queenstown,1.30798,103.78604,181,25
7174313,"Apartment A, 2 bedroom in City. Near MRT",Central Region,Kallang,1.31267,103.87457,999,58
7181966,Cozy apartment near Little India,Central Region,Kallang,1.31791,103.85083,131,14
7182042,"Elegant, newly furnished room Aljunied MRT",Central Region,Geylang,1.31575,103.88392,58,42
7182463,Spacious Master's Bedroom at Paya Lebar,Central Region,Geylang,1.31553,103.8909,78,5
7206112,Master Bedroom  with Panoramic View,Central Region,Bukit Merah,1.28283,103.83109,99,1
7210133,Cosy common room for 2.,North Region,Woodlands,1.43537,103.77406,60,1
7212903,Cosy Common room near MRT,West Region,Bukit Panjang,1.36949,103.76564,44,20
7216716,Big brown room in cool central shophouse.,Central Region,Bukit Merah,1.27832,103.83774,87,9
7227025,Common Room with Stunning View,Central Region,Bukit Merah,1.27876,103.82701,75,6
7227077,Cozy common in stunning Condo,Central Region,Bukit Merah,1.28084,103.82894,51,1
7227489,Not available,Central Region,Tanglin,1.29407,103.8284,200,0
7229906,❀1BR near city fringe beside MRT (8m8),Central Region,Rochor,1.30649,103.84785,137,4
7231780,"T - Bright, Airy City Suite Mins to MRT",Central Region,Bukit Merah,1.28273,103.83349,139,13
7232642,"T - Bright, Quiet City Apt 400M to MRT",Central Region,Bukit Merah,1.28446,103.83441,153,6
7235859,Private room at east coast,East Region,Bedok,1.31441,103.9127,90,4
7246427,"Near MRT, with Great Views",North-East Region,Punggol,1.41061,103.90128,135,2
7250803,Lakeside En-suit/Master room.,West Region,Jurong West,1.33317,103.72422,65,23
7255642,Comfort Apartment near Lakeside,West Region,Jurong West,1.34207,103.71739,69,2
7256010,nearby mrt 1 bedroom condo,North-East Region,Serangoon,1.3528,103.86583,110,3
7265781,"Resort like unit, 2bdrm, no owner",North-East Region,Ang Mo Kio,1.38496,103.84138,99,5
7266808,A stylish modern bright room,Central Region,Tanglin,1.29374,103.82439,65,0
7268453,LUX Studio  in the heart of  CBD,Central Region,Downtown Core,1.27383,103.84634,189,1
7280123,Super Master Studio Room @ Eunos MRT,Central Region,Geylang,1.31427,103.90594,69,0
7282084,1 bedroom with Balcony (Walk to Aljunied MRT),Central Region,Geylang,1.31569,103.88784,100,21
7287975,Common Bedroom at Aston Mansions,Central Region,Geylang,1.31306,103.89173,69,1
7292727,T - Modern Luxe City Apt @ Tiong Bahru,Central Region,Bukit Merah,1.28539,103.83356,139,34
7295353,Live with a local family in an old neighbourhood,North Region,Woodlands,1.44013,103.79117,190,0
7296138,Master bedroom with pool view,Central Region,Geylang,1.31286,103.88659,50,23
7311328,(Central-Novena) Semi-Detached House Near Subway,Central Region,Novena,1.31898,103.84614,219,142
7312255,Modern Cozy Living Space,Central Region,Novena,1.32281,103.85133,131,5
7319075,Beautiful 2 Bedr. apart next to MRT,Central Region,Novena,1.32214,103.84917,200,46
7321238,"A Room with  bathroom near NTU, Boon Lay",West Region,Jurong West,1.3426,103.71501,51,28
7332608,Rainforest Family,East Region,Pasir Ris,1.37835,103.95465,187,0
7336489,East Coast House,East Region,Bedok,1.32101,103.9255,151,4
7350502,1 bedroom unit (Walk to Aljunied MRT),Central Region,Geylang,1.31481,103.88701,87,59
7372314,Cozy Room Centrally located,Central Region,Kallang,1.30934,103.86337,69,0
7375074,2B (1200sqft) in a luxury condo.,Central Region,Geylang,1.30661,103.88659,190,0
7379192,highrise loftbed *roomDs @ chinatown heritage,Central Region,Outram,1.28425,103.84296,37,2
7381770,Cozy 2 Bedroom Near The City,Central Region,Geylang,1.31489,103.88798,181,46
7399093,New Heritage Modern 1BR Apt@Orchard,Central Region,River Valley,1.29484,103.83859,128,46
7440447,3 BR Condo with Facilities,North-East Region,Ang Mo Kio,1.39037,103.83532,169,59
7441844,Green Space,North-East Region,Sengkang,1.38404,103.89558,40,5
7470884,master room + balcony 阳台主人房,North-East Region,Serangoon,1.35419,103.87758,79,1
7486446,"Cool Studio 2-min to MRT. Near INSEAD, NUS",Central Region,Queenstown,1.30155,103.79117,171,89
7488085,Bedroom with wifi and air-con,West Region,Clementi,1.30631,103.76292,60,0
7508511,Master-bed with panoramic lake view,West Region,Bukit Batok,1.3549,103.75239,79,1
7511173,Nice view Condo For Lovely Guests,North-East Region,Ang Mo Kio,1.37175,103.8475,62,108
7517671,Super Big Master room,Central Region,Downtown Core,1.27377,103.84523,200,96
7525985,Central Grove Common Room 7.25-9.14,Central Region,Geylang,1.31498,103.88587,44,0
7534889,Ground Floor Cosy 1 Bedroom Unit,Central Region,Geylang,1.31339,103.88609,89,27
7536368,Raffles Master Room,Central Region,Downtown Core,1.274,103.84603,160,11
7537099,Studio Apartment - Close to City,Central Region,Kallang,1.31099,103.85652,150,0
7537301,Ocean view  Master Room in Penthouse,Central Region,Downtown Core,1.27843,103.84614,169,37
7537485,Common Room,Central Region,Downtown Core,1.2745,103.84656,150,30
7537692,Penthouse Master Room,Central Region,Outram,1.27829,103.84485,169,32
7538532,Central Master bedroom in Orchard/River Valley,Central Region,River Valley,1.29795,103.83012,75,13
7570596,"Deluxe 1 Bedroom, Sommerset 7",Central Region,Newton,1.3055,103.84008,129,65
7576008,Love Room,Central Region,Geylang,1.31245,103.87858,49,3
7582910,Quiet & Clean Master Room at East Area,Central Region,Geylang,1.31443,103.90604,60,5
7595693,Cozy apartment  home away from home,Central Region,Geylang,1.31544,103.88674,119,6
7605283,"Clean cosy room, 7 mins to Sentosa",Central Region,Bukit Merah,1.27718,103.82167,72,291
7610379,Room For Short Term Rental,East Region,Bedok,1.32796,103.92311,81,0
7614627,Cozy Studio in River Valley,Central Region,River Valley,1.29611,103.84064,119,57
7622220,Resort Home by the Reservoir,East Region,Bedok,1.33734,103.92298,144,22
7628360,Brand New 3 bedroom Apt Near Sentosa Fits 9 pax,Central Region,Bukit Merah,1.26714,103.81071,450,112
7628503,❀❀❀3BR Amazing Near Shoppin mall zhongshan (ga),Central Region,Novena,1.32795,103.84354,358,11
7632462,Convenient 1 Bedroom near the City,Central Region,Geylang,1.31373,103.88803,119,12
7641522,3-person Bunk/Loft Bed Private Room,Central Region,Rochor,1.30298,103.85774,90,3
7642856,Sleepy and quiet facing a school,North Region,Woodlands,1.43605,103.79861,50,0
7653937,Lavender DoubleBed rmA*2: 5m walk MRT,Central Region,Kallang,1.30702,103.86212,40,1
7654939,Central high rise bed/bathroom,Central Region,Novena,1.32761,103.84858,219,0
7655771,★Enchanting City Fringe Queen Bedroom★,Central Region,Marine Parade,1.30805,103.89592,56,207
7662310,Cozy Apt near the City,Central Region,Geylang,1.31381,103.88682,85,64
7662314,Studio Apt near the City,Central Region,Geylang,1.31551,103.88613,94,22
7666349,"Orchid Country Club, Deluxe room 1",North Region,Yishun,1.41016,103.84466,187,5
7666917,AA WARM & COZY HOME at BB (B/RM 1).,West Region,Bukit Batok,1.35285,103.75816,37,7
7667016,1960s Queenbed RmA2 @ lavender bugis,Central Region,Kallang,1.30726,103.86185,40,3
7681974,Your first home in Singapore,Central Region,Tanglin,1.29325,103.82334,85,11
7683535,East Coast park,East Region,Bedok,1.3125,103.93606,219,123
7683990,Luxurious & central 1 br flat,Central Region,Kallang,1.29922,103.86215,150,14
7684283,Singapore Green Space,North-East Region,Sengkang,1.38424,103.89553,81,25
7697928,clean home near NTU,West Region,Jurong West,1.34036,103.68779,40,9
7698929,Riversails,North-East Region,Hougang,1.37821,103.90257,140,0
7702277,"1 Bedroom Apartment in City Fringe, Near MRT",Central Region,Geylang,1.31228,103.8761,44,26
7704031,2 Room Urban Living near MRT,Central Region,Geylang,1.31083,103.88456,194,2
7717118,Charming Studio at River Valley,Central Region,River Valley,1.29667,103.83883,119,40
7725406,cosy and clean room near NTU,West Region,Jurong West,1.33903,103.68782,37,4
7733844,LARGE MASTER SUITE@ BUONA VISTA MRT,Central Region,Bukit Timah,1.31743,103.77955,85,56
7735143,Luxurious Apartment,Central Region,Tanglin,1.31236,103.82572,219,2
7735999,Private Room in Quiet Area,Central Region,Downtown Core,1.27866,103.8549,344,0
7750789,20th story apt with balcony & pool,Central Region,Novena,1.32381,103.85526,144,0
7765392,Cozy Penthouse Room,Central Region,Kallang,1.31209,103.85757,58,9
7766300,Private room,North-East Region,Punggol,1.40029,103.90401,44,1
7769781,Large Room- CBD Next to KALPSON AMARA & SOUTHPOINT,Central Region,Bukit Merah,1.27439,103.84083,200,28
7791384,Relax at this Cosy Innercity Condo,Central Region,Kallang,1.32741,103.86411,51,22
7811199,Cozy Studio at River Valley,Central Region,River Valley,1.29506,103.83996,119,38
7811392,"AmazinBeautiful Twin-Room Resort, Up To 6 Guests",North Region,Sembawang,1.4401,103.82477,53,1
7814843,Private Room In East,Central Region,Marine Parade,1.31182,103.90644,56,202
7827659,Master Room with Bathroom Inside,East Region,Bedok,1.31403,103.90645,65,262
7829853,room for 2 with balcony ( Smoking ),Central Region,Geylang,1.31186,103.88136,69,10
7830009,Balcony room for 2,Central Region,Geylang,1.31138,103.88157,69,26
7830012,Room for 2 with balcony @ Geylang,Central Region,Geylang,1.31153,103.88267,69,15
7830183,Common room in Condo,Central Region,Bishan,1.35941,103.82834,26,0
7843168,1 Super Single Bed In Private Room,Central Region,Geylang,1.31422,103.90481,40,285
7849158,Room @ 197D Boon Lay Drive near NTU,West Region,Jurong West,1.34509,103.71449,39,4
7862285,"Condo By The Sea, minutes from city",East Region,Bedok,1.31298,103.93932,269,0
7868833,1 Bedroom with Patio (Walk to Aljunied MRT),Central Region,Geylang,1.3155,103.88591,90,42
7875935,"Central Location, Near MRT & Food. Long Term Rent.",Central Region,Kallang,1.31393,103.87216,60,10
7888339,Lavender Bugis Long term Leases > 3mths available,Central Region,Kallang,1.30838,103.86142,40,3
7891758,1 Bedroom apartment at River Valley,Central Region,River Valley,1.29614,103.83967,119,28
7894542,1 bed apt at the Waterscape Condo,Central Region,Newton,1.30521,103.84253,194,10
7898449,2 Bedroom Apartment near the City,Central Region,Geylang,1.31359,103.88794,181,47
7900299,Queen bed > Master Room at East area,East Region,Bedok,1.31593,103.90714,51,4
7901622,East Coast Road At Katong 2 bedrms for sales.,Central Region,Marine Parade,1.30847,103.90394,83,0
7902847,❀❀2BR SPACIOUS UNIT @ Kim Keat! (BLB),Central Region,Novena,1.32445,103.85397,228,6
7903503,RENT- 3 bedroom near Mt E novean-monthly $6k,Central Region,Novena,1.3277,103.84428,300,7
7905972,Private room in Katong (near town),Central Region,Marine Parade,1.30678,103.90351,75,4
7912670,Ground Floor Cosy 1 bedroom unit with Patio,Central Region,Geylang,1.31421,103.88753,99,21
7914388,Huge Master Room at Bugis Area,Central Region,Rochor,1.3009,103.85213,90,161
7927886,Cosy Japanese Garden Common room,West Region,Jurong East,1.33316,103.72676,56,28
7930891,Ground floor 1 bedroom with Patio (Aljunied),Central Region,Geylang,1.31479,103.88627,94,24
7940828,Walk up apartment in the City,Central Region,Rochor,1.30224,103.84572,100,17
7943726,Charming Tiong Bahru Shophouse,Central Region,Bukit Merah,1.28344,103.83308,81,0
7946472,1960s singlebed *RmA @ lavender bugis.,Central Region,Kallang,1.30854,103.86407,44,2
7956917,Room with window view,West Region,Jurong West,1.34352,103.71527,40,0
7957893,♥♥Fully Furnished 2BR for Family @ Central (BL1),Central Region,Novena,1.32419,103.851,231,6
7991469,Modern&Roomy condo 2-5beds host 4-9,West Region,Choa Chu Kang,1.38008,103.76074,218,45
7994039,1960s queenbed Rm*1 @ lavender bugis,Central Region,Kallang,1.30852,103.86173,40,2
7996456,Room in heartlands,West Region,Jurong East,1.34193,103.73584,50,1
8001300,In the middle of Singapore,Central Region,Rochor,1.30262,103.84836,119,0
8004063,Lavender Doublebed rmA* (3min:MRT>CBD:3min),Central Region,Kallang,1.30668,103.86207,37,8
8004648,Homey cozy room in Natureland,North Region,Yishun,1.41633,103.84611,94,15
8007663,Lavender DoubleBed rmA2: 5m walk MRT,Central Region,Kallang,1.30787,103.86331,39,3
8017511,3 bedroom apt beside Kembangan MRT.,East Region,Bedok,1.31952,103.91476,200,30
8022978,CBD/F1 Marina bay finance apartment,Central Region,Downtown Core,1.28103,103.85279,268,39
8036127,ONE BEDROOM APT/4 PERS@HOLLAND VILLAGE/NUH,Central Region,Bukit Timah,1.31587,103.78891,135,38
8038199,City Hall  Loft,Central Region,Downtown Core,1.29628,103.85365,169,101
8041344,Spacious Singaporean Style Master Bedroom,Central Region,Geylang,1.31583,103.88886,50,1
8055914,3mins walk to MRT- Aircon Master Room w/bathroom,Central Region,Bukit Timah,1.32118,103.80424,81,48
8061522,Peaceful Haven in Central Location,Central Region,Tanglin,1.31579,103.83026,240,19
8097455,Award-Winning HighLevel Condo@Botanic Gardens,Central Region,Bukit Timah,1.31504,103.80376,249,6
8099229,Style of Singapore.,East Region,Tampines,1.35757,103.93795,53,0
8111502,Nice Studio Room in Landed house(8),East Region,Bedok,1.31724,103.91256,131,7
8111607,Cozy studio room in Landed house(7),East Region,Bedok,1.31743,103.91382,131,0
8113569,Single Master Room & private bathroom (1),East Region,Bedok,1.3185,103.91248,90,3
8113712,Double Master Room & private bathroom (2),East Region,Bedok,1.3172,103.9139,100,2
8113821,Double Master Room & private bathroom (3),East Region,Bedok,1.31857,103.91291,100,4
8113893,Double Master Room & private bathroom (4),East Region,Bedok,1.31722,103.9128,100,5
8113936,Double Master Room & private bathroom (5),East Region,Bedok,1.3168,103.91281,100,3
8114003,Double Master Room & private bathroom (6),East Region,Bedok,1.31744,103.91363,100,8
8119521,Single Ac Rm at Condo close to Mrt,West Region,Jurong East,1.33854,103.73746,35,14
8133427,Stylish Loft Apartment!,Central Region,Novena,1.32343,103.85342,300,1
8133710,Modern 1bedroom at Superb Location Near Orchard,Central Region,River Valley,1.29666,103.83975,131,33
8134407,Tiong Bahru HDB common room,Central Region,Bukit Merah,1.28227,103.8258,81,0
8143933,Modern Room for long term stay,Central Region,Queenstown,1.30207,103.79821,58,2
8156342,Common Room Home Stay,Central Region,Queenstown,1.30574,103.80105,58,3
8156821,Rain Forest View Retreat Suite for Women,Central Region,Novena,1.3404,103.82685,89,28
8157630,Studio Apartment - Aljunied,Central Region,Geylang,1.31249,103.88328,140,8
8158680,1-Bedroom Apartment - Aljunied,Central Region,Geylang,1.31447,103.88143,160,2
8158710,2-Bedroom Apartment - Aljunied,Central Region,Geylang,1.31253,103.88268,181,3
8173978,Studio Apartment - Tanjong Pagar,Central Region,Downtown Core,1.27509,103.84483,190,9
8174016,Cosy room near Bugis,Central Region,Rochor,1.30174,103.85389,83,1
8174481,1-Bedroom Apartment - Tanjong Pagar,Central Region,Downtown Core,1.27341,103.84485,210,5
8174505,2-Bedroom Apartment - Tanjong Pagar,Central Region,Downtown Core,1.27534,103.84711,260,19
8176323,Modern apartment 100m from train,Central Region,Geylang,1.30737,103.8885,175,1
8176609,Room The Sail Marina Bay Raffle plc,Central Region,Downtown Core,1.28031,103.85144,85,1
8180339,Studio The Sail@Marina Bay Sands,Central Region,Downtown Core,1.28042,103.85198,119,0
8180346,The Zen Room,East Region,Tampines,1.34432,103.96211,50,203
8180676,Studio Apt near the City,Central Region,Geylang,1.31386,103.88666,92,57
8186452,"5★ Mod Urban #1 Apt, 2 mins fr MRT",Central Region,Toa Payoh,1.3323,103.86991,164,71
8195397,Premium Backpacker 8 Bed Mixed Dorm,Central Region,Rochor,1.30513,103.84969,28,115
8196180,Female 4 Bed Dormitory,Central Region,Rochor,1.30339,103.84884,33,18
8196359,Premium Backpacker 4 Bed Mixed Dorm,Central Region,Rochor,1.30475,103.84962,33,3
8196417,Premium Backpacker 6 Bed Mixed Dorm,Central Region,Rochor,1.30509,103.84896,31,38
8198598,"5★ Mod Urban #2 Apt, 2 mins fr MRT",Central Region,Toa Payoh,1.33209,103.86926,164,68
8200542,Cosy & Quiet Surrounding 3BR Apt,Central Region,Geylang,1.31443,103.89439,224,168
8212166,Studio@ The Sail@Marina Bay (CBD),Central Region,Downtown Core,1.28016,103.8536,125,1
8212422,Family room for 4 pax,Central Region,Rochor,1.30573,103.84885,131,25
8213940,2 single beds in one room,Central Region,Bukit Merah,1.2666,103.81597,100,0
8220552,Studio Apt in the heart of ChinaTown,Central Region,Outram,1.28435,103.84352,200,0
8234618,1 bdrm The Sail@Marina Bay/Full bay,Central Region,Downtown Core,1.28181,103.85291,151,0
8242488,Lovely room with own bathroom!,East Region,Bedok,1.3109,103.91154,150,0
8247580,Apartment near Orchard,Central Region,Orchard,1.30021,103.83589,119,1
8247958,Private room at Lavender MRT,Central Region,Kallang,1.3075,103.86267,100,0
8250221,Nice and quiet environment,Central Region,Bukit Timah,1.31855,103.77496,150,5
8259582,Charming Studio at River Valley,Central Region,River Valley,1.29478,103.83901,119,22
8264110,Walk up apt at Sophia Road,Central Region,Rochor,1.30387,103.84695,100,16
8264717,"Garden of Eden (Near Airport, Expo)",East Region,Tampines,1.34574,103.94188,81,138
8277151,Luxury serviced apartment in Orchard near subway9,Central Region,River Valley,1.296,103.84045,158,70
8277838,Orchard Road Cosy Apartment,Central Region,River Valley,1.29763,103.83921,140,12
8282521,"Bright, New Room, Private Bath",Central Region,Downtown Core,1.27399,103.84649,150,0
8311661,Charming Heritage House @ Joo Chiat,Central Region,Geylang,1.31138,103.89888,210,0
8313460,cosy apartment 3,Central Region,Kallang,1.30971,103.87093,60,73
8313545,standard room for 2,Central Region,Geylang,1.31137,103.88129,60,80
8313660,Standard Room @ Geylang Road,Central Region,Geylang,1.31136,103.88151,60,58
8313733,Hotel Concept Rooms,Central Region,Geylang,1.31152,103.88109,60,11
8330622,Balcony Room for 2 @ Evergreen,Central Region,Geylang,1.31108,103.8833,69,6
8343880,Female only 4 Bed Dorm,Central Region,Rochor,1.30385,103.85095,33,6
8344754,Large Family House Newton with Housekeeper,Central Region,Novena,1.31347,103.84091,681,9
8345350,Premium Backpacker 8 Bed Mixed Dorm,Central Region,Rochor,1.30352,103.85056,28,70
8345651,Queen-Size Double Room(Shared Bath),Central Region,Rochor,1.30526,103.8495,79,8
8345921,Premium Backpacker 2 Bed Mixed Dorm,Central Region,Rochor,1.30412,103.84905,36,7
8348566,B/N Fully furnished Condo Near LRT,North-East Region,Sengkang,1.3878,103.88783,100,24
8355592,6 bed dorms,Central Region,Rochor,1.30397,103.84928,31,11
8362197,1 Master Bdrm in 3 Bdrm Apartment,Central Region,River Valley,1.29463,103.83923,100,0
8364495,Spacious Cozy Apartment near City MRT & Food,Central Region,Geylang,1.31274,103.88659,181,173
8372023,Orchard Studio w Awesome Kitchen Emerald Hill Rd#8,Central Region,Newton,1.30543,103.8403,135,71
8372113,Upscale Studio Emerald Hill 3,Central Region,Newton,1.30488,103.84002,135,69
8380826,Jurong West Spacious Common Room (near NTU),West Region,Jurong West,1.34726,103.70083,22,1
8391846,Private room in a new Condo,Central Region,Kallang,1.31714,103.85011,56,2
8393043,Charming Studio at River Valley,Central Region,River Valley,1.29488,103.8392,110,32
8398148,Lavender Bugis Long term Leases > 3mths available,Central Region,Kallang,1.30775,103.8622,44,1
8399111,Peaceful Cosy Apt Facing Greens,West Region,Bukit Batok,1.35278,103.75727,160,55
8403010,Luxurous living with a Private room,Central Region,Novena,1.31911,103.8464,69,0
8432015,3BR (For 5)Apt Orchard/Stevens/UNESCO *MRT* Sui,Central Region,Tanglin,1.31667,103.82595,300,31
8432287,Cozy Private Room with Bathroom,North-East Region,Serangoon,1.37279,103.87369,40,14
8432707,Absolute stunning up the hilltop!,Central Region,Queenstown,1.28205,103.78507,250,0
8433330,Great Apt for F1 Races,Central Region,Novena,1.32714,103.8512,150,0
8445747,Lavender DoubleBed RmA Heritage windows: 5mwalkMRT,Central Region,Kallang,1.30857,103.86234,44,1
8449010,Private 2BR apartment with fab view,East Region,Bedok,1.34006,103.92719,125,13
8460997,1 bed room near city square mall,Central Region,Kallang,1.31439,103.85852,50,3
8474857,A 4-room apartment available.,North-East Region,Punggol,1.40437,103.90284,119,0
8477283,1BR+STUDY City Fringe. 3min to MRT,Central Region,Bukit Merah,1.29213,103.81734,250,2
8488609,To stay MasterRoom in beach condo.,East Region,Pasir Ris,1.37932,103.9603,42,0
8492009,Affordable King-size Bedroom!,Central Region,Newton,1.31662,103.83582,119,0
8492097,1 Bedroom Sky View Apartment ZsM,Central Region,Novena,1.32869,103.8474,131,10
8493657,Delightful room in colonial house,Central Region,Bukit Merah,1.27629,103.83692,131,26
8508225,Marina Bay Iconic Luxury 1-Bed Apt,Central Region,Downtown Core,1.28051,103.85327,250,32
8508289,"Prime CBD Club Street, Heritage S1!",Central Region,Outram,1.28289,103.84728,119,33
8508323,Hillcrest Arcadia,Central Region,Bukit Timah,1.3339,103.80873,69,0
8525002,"T - 3mins To Orchard, New Modern Apt.",Central Region,Tanglin,1.2959,103.82972,208,6
8525879,NEW! Lovely & Relaxing in Great Location **Central,Central Region,Geylang,1.31273,103.87559,156,111
8540163,Attic Master Room with attached Bathroom,East Region,Bedok,1.31569,103.9067,58,1
8541582,3 BedRoom Near Toa Payoh MRT 1,Central Region,Novena,1.3285,103.84524,268,17
8560712,2 Bedroom condo @ KimKeat for medical,Central Region,Novena,1.32421,103.85337,200,84
8560786,✪✪2BR Mackenzi Area @ Town beside Mrt station,Central Region,Novena,1.32475,103.8522,208,6
8571567,Singapore Multi-unit building,East Region,Tampines,1.35329,103.93195,119,0
8577081,Cosy Room in Novena (Central Area),Central Region,Novena,1.32218,103.84192,99,0
8583021,"A bright south room,near to beach",East Region,Pasir Ris,1.37957,103.96301,31,2
8598680,Private Big Apartment At Room Price,Central Region,Tanglin,1.31491,103.80578,119,4
8609210,Green room in hippest area of SG!,Central Region,Bukit Merah,1.28475,103.83289,87,42
8616705,♥♥Spacious Family Suite w Balcony Novena (zsm4),Central Region,Novena,1.32235,103.85286,231,6
8617116,✪✪2BR Fully Furnished Cosy (zsm),Central Region,Novena,1.32427,103.85103,218,6
8623041,Room near beautiful  kallang river,Central Region,Kallang,1.2962,103.86954,72,0
8625349,Beary's 9 Bed Ladies Dorm (Per Bed),Central Region,Outram,1.28476,103.84589,28,6
8626676,Beary's 6 Bed Mixed Dorm (Per Bed),Central Region,Outram,1.28365,103.84637,32,15
8641722,FULLY FURNISHED SPACIOUS 4 BEDROOM!,Central Region,Geylang,1.31241,103.88686,308,1
8642934,1+1 BDR Apartment in Duxton Hill,Central Region,Outram,1.27757,103.84141,250,0
8654132,Beary's 8 Bed Mixed Dorm (Per Bed),Central Region,Outram,1.28285,103.8445,28,34
8654673,Ladies Only Dorm with Ensuite Bathroom (per bed),Central Region,Outram,1.2842,103.84444,32,19
8657749,Amazing View - Modern New Condo!,Central Region,Downtown Core,1.27686,103.84835,158,0
8658119,Room in Stylish Minimalist Apt. @ Holland Village,Central Region,Queenstown,1.30652,103.79449,75,8
8681954,The private room is bright so.,East Region,Pasir Ris,1.38118,103.96262,33,1
8705956,Lux Studio@Marina Bay Singapore,Central Region,Downtown Core,1.28027,103.85072,208,9
8706704,Lux Suite@Marina Bay Singapore (studio),Central Region,Downtown Core,1.28028,103.85331,228,10
8721639,Rare Twin Studios /2rm @MarinaBaySG,Central Region,Downtown Core,1.28039,103.85233,408,19
8726476,Town - Room 1F,Central Region,Kallang,1.31546,103.85508,69,16
8727077,Bed and Cereals.,North-East Region,Ang Mo Kio,1.39021,103.85452,278,0
8730126,Private Apartment @ City Loft,Central Region,Kallang,1.31541,103.85609,140,0
8730591,Flora Drive common room for rent (minimum 3 month),East Region,Pasir Ris,1.35888,103.96506,26,0
8742389,Full furniture and nice enviroment,Central Region,Bishan,1.36486,103.83297,1100,0
8775217,luxy condo soho loft 2bdr 4-7guests,West Region,Choa Chu Kang,1.38153,103.75944,169,21
8779986,Cozy 2BR. FREE wifi. Near to Train/Bus/Food.,Central Region,Geylang,1.31584,103.88199,108,166
8817446,Cosy 1 bedroom near orchard,Central Region,Tanglin,1.29417,103.82827,151,14
8818936,Cosy Apt Just beside i12 Katong,Central Region,Marine Parade,1.30478,103.90485,258,1
8820958,2BR in new apartment with 2 bath,Central Region,Kallang,1.32792,103.86447,125,0
8829303,Peaceful 1+1 with balcony. 5min to train.,Central Region,Geylang,1.31567,103.88186,128,16
8831688,1BR in new apartment with own bath,Central Region,Kallang,1.32746,103.86436,60,0
8839856,Private room at holland village,Central Region,Bukit Timah,1.31213,103.79569,56,0
8851732,HDB flat in farrer park,Central Region,Kallang,1.3134,103.85402,200,1
8852917,Little India,Central Region,Rochor,1.3037,103.84988,110,1
8853121,2bdrm Apartment in Holland Village,Central Region,Bukit Timah,1.31331,103.79929,199,2
8853306,Fernvale Lane,North-East Region,Sengkang,1.39019,103.87137,106,0
8867964,Tech Home w/ nice Japanese couple,Central Region,Bukit Timah,1.31448,103.79311,100,0
8872326,Penthouse Master Room S2-2,Central Region,Downtown Core,1.27439,103.84714,169,18
8878770,#2 Shean's Place,West Region,Bukit Panjang,1.38884,103.7705,56,18
8888094,LUXURY FAMILY APTMNT WITH BIG POOL,Central Region,River Valley,1.29525,103.83722,325,2
8890247,Private room- 4 bed (Shared toilet),Central Region,Kallang,1.30985,103.87271,100,36
8897560,SINGLE BED CAPSULE IN HOSTEL RM 2,Central Region,Kallang,1.31251,103.86023,22,38
8899095,One Master Bed Room - Cassia View.,Central Region,Geylang,1.31028,103.88633,40,6
8909347,Super Big Penthouse - Master room S2-3,Central Region,Downtown Core,1.27396,103.84523,200,53
8909399,Penthouse Master Room S2-4,Central Region,Downtown Core,1.2728,103.8448,169,129
8909442,Penthouse Master Room S2-5,Central Region,Downtown Core,1.27429,103.84519,169,25
8909510,Raffles Master Room S2-6,Central Region,Downtown Core,1.27331,103.84422,161,9
8914905,Private Room for 7pax @ Chinatown,Central Region,Outram,1.28307,103.84395,315,1
8943847,300m2 Modern Loft - Resort Style,Central Region,Bukit Timah,1.31679,103.78518,344,0
8949945,Central authentic walk-up apartment,Central Region,Novena,1.31702,103.83964,131,3
8957125,Red Hill HDB 出租 近地铁站 楼下有两个食阁 交通方便,Central Region,Bukit Merah,1.28733,103.8163,1019,0
8957363,Blk 210 Bukit Batok St 21,West Region,Bukit Batok,1.34589,103.74904,81,0
8975531,2 bed room near town,Central Region,Toa Payoh,1.33957,103.8457,56,0
8996663,Queensize bedroom A/C with Bathroom,Central Region,Bishan,1.35631,103.84883,110,0
9000149,Luxury 2 Bedroom Apartment Bay View @ Raffles,Central Region,Downtown Core,1.28041,103.85241,310,5
9016784,Hip Designer Studio @Novena,Central Region,Novena,1.32148,103.84106,118,8
9017107,Loft unit in the heart of Chinatown,Central Region,Outram,1.28337,103.84369,119,6
9019945,1910s Conservation Shophouse @Bugis,Central Region,Downtown Core,1.29889,103.85567,250,0
9023549,Prestigious Room Resort Near City,Central Region,Marine Parade,1.30332,103.90058,100,60
9024726,5mins from mrt,Central Region,Outram,1.28363,103.83998,139,0
9030732,Large room in quiet condo with pool,Central Region,Museum,1.29773,103.84347,131,11
9032240,highrise *EnsuiteM1 + attached toilet & shower,Central Region,Outram,1.28304,103.84294,60,1
9033647,Shanz Homestay 姗之家,West Region,Jurong West,1.35349,103.70204,44,36
9033891,"Shanz Homestay(whole place)
姗之家",West Region,Jurong West,1.35249,103.70206,110,1
9042165,Prestigious hotel like bedroom,Central Region,Marine Parade,1.30208,103.90206,118,37
9042423,Good location and friendly faimly,Central Region,Novena,1.31972,103.84736,150,1
9079507,Sea view apartment with pool & gym,East Region,Bedok,1.31134,103.93727,187,0
9079545,Relaxing Resort Room Vacation Stay,Central Region,Marine Parade,1.30195,103.90241,81,107
9084907,"Room with balcony near Botanic Garden, Bukit Timah",Central Region,Bukit Timah,1.32492,103.81175,44,8
9097877,Convenient City Centre 2BR Apartment above MRT #31,Central Region,Outram,1.28362,103.84604,286,113
9099599,Contemporary Couple/Single Bedroom,North Region,Yishun,1.41781,103.84287,50,13
9104449,Bungalow stay near last hot spring,North Region,Sembawang,1.4382,103.82685,78,22
9105592,Private Room for 2,North Region,Yishun,1.42591,103.8495,81,1
9116730,"City,(4~6pax)Loft Alcoves, Fast WIFI,Clean & Cosy",Central Region,Kallang,1.31074,103.85964,210,39
9118960,Cozy Studio near the City,Central Region,Geylang,1.31479,103.88787,94,66
9122528,Your Home away from Home!,East Region,Bedok,1.32573,103.90826,61,0
9138262,Designer decor 3bed large apartment,Central Region,Queenstown,1.28207,103.78696,750,0
9142805,Diva's Bed/Shared Room @citycentre- Female only,Central Region,Rochor,1.29913,103.85316,31,50
9143024,DOUBLE BED IN CAPSULE HOSTEL RM 2,Central Region,Kallang,1.3149,103.85021,44,34
9147903,Great Room for Rent w/Amenities,West Region,Jurong East,1.34443,103.73485,37,0
9157484,Spacious double room at central,Central Region,Bukit Timah,1.33194,103.79488,42,2
9158687,Huge room in heritage style walk-up,Central Region,Geylang,1.3153,103.90333,81,1
9202827,Duplex Penthouse Harbour View Condo,Central Region,Queenstown,1.28337,103.78359,292,1
9204908,1910s 2bedroom Shophouse-loft@Bugis,Central Region,Downtown Core,1.29811,103.85691,250,0
9207480,Student homestay with teacher,Central Region,Toa Payoh,1.33284,103.87767,56,0
9216943,Single Master Room Near MRT,West Region,Bukit Batok,1.34866,103.74683,69,27
9219733,"Cozy master bedroom in the condo, by river!",North-East Region,Hougang,1.3678,103.9022,60,2
9239753,Fully Furnished Spacious 3 Bedroom in farrer park,Central Region,Kallang,1.31669,103.85382,300,0
9243492,2 Bedroom Bliss @ TOWN!!! BlB,Central Region,Toa Payoh,1.33504,103.86762,187,5
9249817,Central Resort-style Condo-Orchard/Cityhall/Bugis,Central Region,Rochor,1.30217,103.84695,119,21
9268058,Private room- 5 bed (Shared toilet),Central Region,Kallang,1.31117,103.87361,125,25
9268500,Private room- 6 bed (Shared toilet),Central Region,Kallang,1.3114,103.87215,150,4
9268680,Private room- 7 bed (Shared toilet),Central Region,Kallang,1.31169,103.87275,175,15
9269260,Private room- 8 bed (Shared toilet),Central Region,Kallang,1.31153,103.8723,200,5
9269637,Private room- 8 bed (Privatetoilet),Central Region,Kallang,1.31017,103.87394,256,1
9269848,Private room- 7 bed (Privatetoilet),Central Region,Kallang,1.30988,103.87346,224,2
9269981,4 Private rooms - 16+ bed,Central Region,Kallang,1.31108,103.8741,432,6
9281075,Local homestay,West Region,Jurong West,1.34895,103.72199,50,28
9303261,T - Brand New Dazzling City Studio,Central Region,Bukit Merah,1.2844,103.83487,119,6
9320962,Sea view room with private bath,East Region,Bedok,1.31106,103.93683,67,80
9321841,1Bed in 6 Beds Female Shared Room,Central Region,Kallang,1.31401,103.8588,26,26
9322393,Bedroom in private apartment,Central Region,Bukit Timah,1.34762,103.79029,90,0
9333764,A place to Bunk,North-East Region,Ang Mo Kio,1.37424,103.84058,25,0
9336010,Funky 2 Storey in Central Singapore,Central Region,Orchard,1.30406,103.83364,794,0
9336337,Central Singapore 3 Bed Apartment,Central Region,River Valley,1.29702,103.83046,200,1
9337650,"Modern Condo Apartment, Central Area with Pool",Central Region,Kallang,1.31722,103.85069,135,12
9338441,Amazing view from a modern loft,Central Region,Downtown Core,1.27399,103.84339,103,1
9353629,Spacious apartment - Robertson Quay,Central Region,Singapore River,1.2901,103.83917,104,2
9358969,1BED in 8 Beds Mixed Room,Central Region,Kallang,1.31471,103.85904,25,9
9359194,8 BEDS Room for Group / Family 8pax,Central Region,Kallang,1.31408,103.85868,181,4
9374865,Cozy Apartment @ Central Singapore -Unit 3,Central Region,Tanglin,1.31889,103.82685,100,2
9377436,Master Room in Heart of Singapore!,Central Region,Rochor,1.29931,103.85063,100,5
9379068,Short Term,East Region,Bedok,1.31907,103.90616,50,0
9381303,Bright & Spacious Master Room,East Region,Bedok,1.31934,103.91466,100,1
9381814,Penthouse w/rooftop jacuzzi & BBQ Grill,East Region,Bedok,1.32654,103.91291,150,5
9391037,6 BEDS Room for Group /Family 6 pax,Central Region,Kallang,1.3143,103.85881,119,44
9395765,NEW Well-decorated  Studio MRT Dhoby Ghaut!,Central Region,Rochor,1.3032,103.84799,100,0
9397355,Highrise heritage Doublebed Rm891,Central Region,Outram,1.2847,103.84404,49,0
9398808,Tiong Bahru Experience,Central Region,Bukit Merah,1.28455,103.83312,300,0
9402064,"Long-term rental only, 1 cosy room",East Region,Pasir Ris,1.37544,103.95919,81,31
9403596,2BEDs in 8 Beds Mixed Room,Central Region,Kallang,1.31449,103.85896,50,8
9416569,Stunning Marina Bay 1 Bdrm Premium,Central Region,Downtown Core,1.27999,103.85313,131,0
9416695,Affordable Comfy Room in the West,West Region,Jurong East,1.34142,103.73525,56,163
9417635,Decent Room near Amenities,North Region,Woodlands,1.43411,103.77708,19,0
9422496,Zen Apt Near Orchard/Botanic Garden,Central Region,Tanglin,1.32075,103.82223,215,16
9436273,,Central Region,Bukit Merah,1.29108,103.83077,69,4
9459389,Large Executive Master bedroom for 2,North Region,Woodlands,1.44928,103.78434,94,20
9464059,"!Stay in City Center, next to Farrer Park MRT (1)",Central Region,Kallang,1.31609,103.85444,69,80
9464676,Private room near MRT/downtown 1,Central Region,Bishan,1.35885,103.84418,81,13
9466660,Condo Room close to Jurong East Mrt,West Region,Jurong East,1.33643,103.73771,60,11
9476931,Swanky & spacious studio w/ Balcony,North-East Region,Hougang,1.37576,103.90349,60,19
9478206,"City Fringe, Never sleeps 7mins MRT",Central Region,Geylang,1.31235,103.87689,97,0
9480031,Whole Unit Executive condo walking distance to Mrt,West Region,Jurong East,1.33509,103.73676,250,2
9480279,Happening Geylang,Central Region,Geylang,1.30999,103.88591,178,0
9506967,Nice Apartment/Orchard MRT/Large Group/Cheap,Central Region,Orchard,1.30418,103.83449,281,202
9513005,A-2mins subway/city central/aircon/wifi/bus/quiet,Central Region,Kallang,1.31913,103.86103,69,120
9519477,Modern Central Condo,Central Region,Downtown Core,1.27548,103.84517,219,7
9520655,Poolside Resort Style Condo,Central Region,Geylang,1.31123,103.88521,156,3
9532339,Garden-view room near MRT/downtown,Central Region,Bishan,1.35904,103.84735,85,24
9532788,Chinatown: In the Heart of the City,Central Region,Outram,1.28329,103.84251,87,185
9549665,Studio Apartment - Tanjong Pagar,Central Region,Downtown Core,1.27551,103.84515,190,2
9549823,1-Bedroom Apartment - Tanjong Pagar,Central Region,Downtown Core,1.27527,103.84562,210,1
9549885,2-Bedroom Apartment - Tanjong Pagar,Central Region,Downtown Core,1.27323,103.84563,260,11
9551814,Spacious & cozy one bedroom home,East Region,Pasir Ris,1.35634,103.9675,119,4
9552806,Cozy 1-Bedroom Apartment,Central Region,Tanglin,1.29422,103.82911,149,28
9555530,Cozy single bedroom share bathroom,North Region,Mandai,1.42571,103.82591,40,23
9563744,BUONA VISTA  BELLA @BUONA VISTA MRT,Central Region,Bukit Timah,1.31604,103.78136,67,88
9565545,Private room in a beautiful condo,East Region,Bedok,1.31124,103.93764,56,1
9565658,Big room - Chinatown,Central Region,Outram,1.28582,103.84274,200,0
9567575,LARGE PRIVATE ROOM NEAR THE ORCHARD CITY CENTRE,Central Region,Orchard,1.30471,103.82582,65,61
9571325,Stylish Orchard Family appt w/Maid!,Central Region,River Valley,1.30388,103.82985,475,2
9579252,Common Room with double bed,East Region,Bedok,1.33305,103.90698,50,0
9579446,Common Room with Single Bed,East Region,Bedok,1.33124,103.90621,40,0
9580133,Bedroom (near SIM/NUS) in Clementi,West Region,Clementi,1.32103,103.76504,62,0
9584573,Single Room w Attached Bathroom Near Train Station,North-East Region,Punggol,1.40529,103.90132,35,2
9619878,"Private bathroom, Queen size bed",Central Region,Tanglin,1.32052,103.82246,50,7
9635192,Nice and cozzy room without window.,Central Region,Outram,1.28471,103.8436,58,172
9637324,1-Bedroom Apartment - Queenstown,Central Region,Queenstown,1.29211,103.80713,144,6
9637729,2-Bedroom Apartment - Queenstown (B),Central Region,Queenstown,1.29049,103.8066,160,7
9653717,Relaxing Ambience Apt Near Orchard,Central Region,Tanglin,1.32024,103.82049,215,24
9654411,"Near NTU, Cosy Common Room",West Region,Jurong West,1.34268,103.69931,43,1
9667448,The perfect common room near the airport,East Region,Tampines,1.348,103.92826,50,6
9669164,Tastefully renovated double bed,North-East Region,Hougang,1.36644,103.87583,118,1
9669437,Spacious shared apt at Normanton Pk,Central Region,Queenstown,1.2882,103.7925,25,1
9669634,New Modern Apartment,East Region,Bedok,1.3166,103.90931,111,0
9673809,新加坡北部三巴望地铁口150米HDB 提供商务服务,North Region,Sembawang,1.45051,103.81707,35,2
9683612,Female only 4 Bed Dorm,Central Region,Rochor,1.30366,103.85097,29,11
9685415,"花拉公园公寓主人房出租,11月底可入住,步行5分钟到地铁站",Central Region,Kallang,1.3165,103.85179,60,0
9685528,Single Room with Perfect Location & Environment,Central Region,Queenstown,1.28681,103.79331,50,0
9696725,"交通极为方便的,楼下就是地铁与购物中心｡",West Region,Choa Chu Kang,1.38077,103.75996,256,40
9698728,Luxury stay in the city,Central Region,Kallang,1.31693,103.85016,199,4
9699851,Spacious Common Room (central area),Central Region,Geylang,1.31636,103.8809,75,1
9702984,Condo room very close to Orchard rd,Central Region,River Valley,1.29836,103.83529,85,0
9716208,Private Pod in Mix 14 Dorm (1),Central Region,Kallang,1.31153,103.85984,35,80
9717005,Quiet and Comfortable City-Fringe Apartment套房民宿201,Central Region,Novena,1.32066,103.85301,81,37
9717769,Lulu,East Region,Bedok,1.33075,103.94238,81,0
9718911,Ben's Naughty Tiger,Central Region,Orchard,1.30364,103.83507,319,93
9738754,2 BR Luxury Apt in Heart of CBD,Central Region,Downtown Core,1.27861,103.85142,312,1
9738917,Couple/Double Pod in Mix 14 Dorm,Central Region,Kallang,1.31169,103.86033,69,4
9739084,Private Family Room for 6,Central Region,Kallang,1.31206,103.86046,210,0
9739843,Private room 1 min walk to MRT,Central Region,Kallang,1.30813,103.86388,49,0
9746208,CityLiving Chinatown,Central Region,Outram,1.28294,103.84387,87,141
9760045,2-Bedroom Apartment - Queenstown (C),Central Region,Queenstown,1.2924,103.80661,151,9
9763409,LAST MINUTE DEAL! Heritage Flat In Hipster-Hood,Central Region,Bukit Merah,1.28337,103.82942,150,2
9766212,Spacious flat in great condo,Central Region,Tanglin,1.31374,103.80672,250,5
9776604,*BOOK NOW US$49/NITE/GUEST!*,North Region,Woodlands,1.42999,103.78503,415,14
9778024,"WOW 4BRs, Near MRT, Cozy Apartment@Geylang",Central Region,Geylang,1.3134,103.87929,240,169
9786807,Lake Side Resort 1+1,East Region,Bedok,1.33708,103.93015,72,149
9802857,"Stunning view, clean & spacious 2BR in central CBD",Central Region,Downtown Core,1.27655,103.84517,449,229
9811834,"花柏山风景区舒适超大主人房间独立卫浴,绿色植物环绕的家园欢迎您",Central Region,Bukit Merah,1.28025,103.82337,90,1
9818528,"Master Suite with attached bathroom, CBD area",Central Region,Downtown Core,1.28206,103.85366,96,2
9828451,"Lovely, cosy room in heart of city!",Central Region,Novena,1.31854,103.84131,65,5
9830656,Cozy and handy Master room,East Region,Tampines,1.35734,103.93777,40,0
9849145,#1 Shean's Place,West Region,Bukit Panjang,1.39029,103.76979,56,15
9857050,Entire apt with balcony & pool,Central Region,Geylang,1.31408,103.88488,219,2
9866651,Private Pod in Mix 14 Dorm (2),Central Region,Kallang,1.3129,103.86146,35,12
9866904,Pods...right outside the action!,Central Region,Kallang,1.31132,103.86153,35,25
9866917,Your Private Pod Outside The City (1),Central Region,Kallang,1.31284,103.86089,35,67
9866970,Your Private Pod Outside The City (2),Central Region,Kallang,1.31232,103.86178,35,11
9866985,Beary's 2 Bed Private Room,Central Region,Outram,1.28271,103.84586,92,4
9869425,Couple Pods....Right outside the City!,Central Region,Kallang,1.31292,103.85983,69,6
9872354,Between Airport & City Attic Room,Central Region,Marine Parade,1.30655,103.90307,78,22
9872882,serangoon石龙岗豪华别墅超大主人房,North-East Region,Serangoon,1.34444,103.87119,60,2
9875315,LUXURIOUSLY SPACIOUS MASTERSUITE,North Region,Sembawang,1.44005,103.82372,90,0
9887900,"2 bedroom condo, high floor",North-East Region,Sengkang,1.38993,103.88019,165,13
9891697,Beautiful Designer Apartment,Central Region,Geylang,1.31168,103.88002,150,13
9896783,SINGLE BED CAPSULE IN HOSTEL RM 3,Central Region,Kallang,1.3108,103.85995,22,68
9897216,Newly furnished beautiful room,Central Region,Toa Payoh,1.3384,103.86546,69,1
9898367,Lake Side Living 1+1,East Region,Bedok,1.33668,103.93036,72,168
9898989,One bedroom in plush condominium,Central Region,Queenstown,1.30723,103.7844,56,2
9901369,Best apartment cheap price,Central Region,Geylang,1.31103,103.88215,110,123
